"study_id","study_name","study_type","authors","publication_year","url","survey_id","country_name","site_name","latitude","longitude","spatial_notes","collection_start","collection_end","collection_day","time_notes","numerator","denominator","prevalence","prevalence_lower","prevalence_upper","year","mutation"
"pf7k_1192_PF_ML_FAIRHURST_SM","1192-PF-ML-FAIRHURST-SM","peer_reviewed","MalariaGen",2023,"https://pubmed.ncbi.nlm.nih.gov/36864926/","pf7k_1192_PF_ML_FAIRHURST_SM_MalariaGen_Koulikoro_2016","Mali","Koulikoro",13.6253391950819,-7.645231383147,"lat/lon sourced from pf7k meta file","2016-01-01","2016-12-31","2016-07-01","Automated midpoint",78,88,88.6363636363636,80.0932143286962,94.4142024049119,"2016","mdr1:86:N"
"pf7k_1197_PF_ML_DIAKITE_SM","1197-PF-ML-DIAKITE-SM","peer_reviewed","MalariaGen",2023,"https://pubmed.ncbi.nlm.nih.gov/36864926/","pf7k_1197_PF_ML_DIAKITE_SM_MalariaGen_Koulikoro_2016","Mali","Koulikoro",13.6253391950819,-7.645231383147,"lat/lon sourced from pf7k meta file","2016-01-01","2016-12-31","2016-07-01","Automated midpoint",83,88,94.3181818181818,87.2367598730967,98.1296136516966,"2016","mdr1:86:N"
"pf7k_1197_PF_ML_DIAKITE_SM","1197-PF-ML-DIAKITE-SM","peer_reviewed","MalariaGen",2023,"https://pubmed.ncbi.nlm.nih.gov/36864926/","pf7k_1197_PF_ML_DIAKITE_SM_MalariaGen_Kayes_2016","Mali","Kayes",13.8729130930277,-10.2304157759393,"lat/lon sourced from pf7k meta file","2016-01-01","2016-12-31","2016-07-01","Automated midpoint",21,25,84,63.9171545540728,95.462054762829,"2016","mdr1:86:N"
"pf7k_1197_PF_ML_DIAKITE_SM","1197-PF-ML-DIAKITE-SM","peer_reviewed","MalariaGen",2023,"https://pubmed.ncbi.nlm.nih.gov/36864926/","pf7k_1197_PF_ML_DIAKITE_SM_MalariaGen_Kayes_2015","Mali","Kayes",13.8729130930277,-10.2304157759393,"lat/lon sourced from pf7k meta file","2015-01-01","2015-12-31","2015-07-02","Automated midpoint",56,61,91.8032786885246,81.8988088890202,97.2848639604444,"2015","mdr1:86:N"
"pf7k_1197_PF_ML_DIAKITE_SM","1197-PF-ML-DIAKITE-SM","peer_reviewed","MalariaGen",2023,"https://pubmed.ncbi.nlm.nih.gov/36864926/","pf7k_1197_PF_ML_DIAKITE_SM_MalariaGen_Koulikoro_2014","Mali","Koulikoro",13.6253391950819,-7.645231383147,"lat/lon sourced from pf7k meta file","2014-01-01","2014-12-31","2014-07-02","Automated midpoint",17,18,94.4444444444444,72.7056400326632,99.8594443832631,"2014","mdr1:86:N"
"pf7k_1197_PF_ML_DIAKITE_SM","1197-PF-ML-DIAKITE-SM","peer_reviewed","MalariaGen",2023,"https://pubmed.ncbi.nlm.nih.gov/36864926/","pf7k_1197_PF_ML_DIAKITE_SM_MalariaGen_Koulikoro_2015","Mali","Koulikoro",13.6253391950819,-7.645231383147,"lat/lon sourced from pf7k meta file","2015-01-01","2015-12-31","2015-07-02","Automated midpoint",1,1,100,2.5,100,"2015","mdr1:86:N"
"pf7k_1197_PF_ML_DIAKITE_SM","1197-PF-ML-DIAKITE-SM","peer_reviewed","MalariaGen",2023,"https://pubmed.ncbi.nlm.nih.gov/36864926/","pf7k_1197_PF_ML_DIAKITE_SM_MalariaGen_Koulikoro_2017","Mali","Koulikoro",13.6253391950819,-7.645231383147,"lat/lon sourced from pf7k meta file","2017-01-01","2017-12-31","2017-07-02","Automated midpoint",4,4,100,39.7635364383525,100,"2017","mdr1:86:N"
"pf7k_1197_PF_ML_DIAKITE_SM","1197-PF-ML-DIAKITE-SM","peer_reviewed","MalariaGen",2023,"https://pubmed.ncbi.nlm.nih.gov/36864926/","pf7k_1197_PF_ML_DIAKITE_SM_MalariaGen_Segou_2014","Mali","Segou",13.8114346849378,-5.69784924579184,"lat/lon sourced from pf7k meta file","2014-01-01","2014-12-31","2014-07-02","Automated midpoint",14,16,87.5,61.6523763150737,98.4486396184586,"2014","mdr1:86:N"
"pf7k_1197_PF_ML_DIAKITE_SM","1197-PF-ML-DIAKITE-SM","peer_reviewed","MalariaGen",2023,"https://pubmed.ncbi.nlm.nih.gov/36864926/","pf7k_1197_PF_ML_DIAKITE_SM_MalariaGen_Segou_2015","Mali","Segou",13.8114346849378,-5.69784924579184,"lat/lon sourced from pf7k meta file","2015-01-01","2015-12-31","2015-07-02","Automated midpoint",11,11,100,71.5085847081846,100,"2015","mdr1:86:N"
"pf7k_1134_PF_ML_CONWAY","1134-PF-ML-CONWAY","peer_reviewed","MalariaGen",2023,"https://pubmed.ncbi.nlm.nih.gov/36864926/","pf7k_1134_PF_ML_CONWAY_MalariaGen_Kayes_2016","Mali","Kayes",13.8729130930277,-10.2304157759393,"lat/lon sourced from pf7k meta file","2016-01-01","2016-12-31","2016-07-01","Automated midpoint",25,26,96.1538461538462,80.3630353237461,99.9026712106665,"2016","mdr1:86:N"
"pf7k_1134_PF_ML_CONWAY","1134-PF-ML-CONWAY","peer_reviewed","MalariaGen",2023,"https://pubmed.ncbi.nlm.nih.gov/36864926/","pf7k_1134_PF_ML_CONWAY_MalariaGen_Kayes_2013","Mali","Kayes",13.8729130930277,-10.2304157759393,"lat/lon sourced from pf7k meta file","2013-01-01","2013-12-31","2013-07-02","Automated midpoint",41,45,91.1111111111111,78.778826304566,97.5247042216531,"2013","mdr1:86:N"
"pf7k_1134_PF_ML_CONWAY","1134-PF-ML-CONWAY","peer_reviewed","MalariaGen",2023,"https://pubmed.ncbi.nlm.nih.gov/36864926/","pf7k_1134_PF_ML_CONWAY_MalariaGen_Kayes_2014","Mali","Kayes",13.8729130930277,-10.2304157759393,"lat/lon sourced from pf7k meta file","2014-01-01","2014-12-31","2014-07-02","Automated midpoint",38,49,77.5510204081633,63.3756981140724,88.2256579445809,"2014","mdr1:86:N"
"pf7k_1134_PF_ML_CONWAY","1134-PF-ML-CONWAY","peer_reviewed","MalariaGen",2023,"https://pubmed.ncbi.nlm.nih.gov/36864926/","pf7k_1134_PF_ML_CONWAY_MalariaGen_Kayes_2015","Mali","Kayes",13.8729130930277,-10.2304157759393,"lat/lon sourced from pf7k meta file","2015-01-01","2015-12-31","2015-07-02","Automated midpoint",37,43,86.046511627907,72.0675199685851,94.7023426133183,"2015","mdr1:86:N"
"pf7k_1134_PF_ML_CONWAY","1134-PF-ML-CONWAY","peer_reviewed","MalariaGen",2023,"https://pubmed.ncbi.nlm.nih.gov/36864926/","pf7k_1134_PF_ML_CONWAY_MalariaGen_Koulikoro_2016","Mali","Koulikoro",13.6253391950819,-7.645231383147,"lat/lon sourced from pf7k meta file","2016-01-01","2016-12-31","2016-07-01","Automated midpoint",101,113,89.3805309734513,82.1845766864127,94.3910659889889,"2016","mdr1:86:N"
"who_530","Department of Natural Sciences and Mathematics, Dominican University of California","peer_reviewed",NA,2023,"http://www.ncbi.nlm.nih.gov/pubmed/26033725","who_530_NA_2014","Uganda",NA,0.3476,32.58252,"lat/lon sourced from who meta file","2014-01-01","2014-12-31","2014-07-02","Automated midpoint",0,0,NA,NA,NA,"2014","mdr1:86:N"
"who_1287","Department of Natural Sciences and Mathematics, Dominican University of California","other",NA,2023,"https://pubmed.ncbi.nlm.nih.gov/26033725/","who_1287_NA_2014","Uganda",NA,0.3476,32.58252,"lat/lon sourced from who meta file","2014-01-01","2014-12-31","2014-07-02","Automated midpoint",0,0,NA,NA,NA,"2014","mdr1:86:N"
"wwarn_wwarn_65090_Menard","wwarn_65090_Ménard","peer_reviewed","Ménard",1000,"https://pubmed.ncbi.nlm.nih.gov/27332904","wwarn_wwarn_65090_Menard_WWARN_CidadeDeMaputo_2014","Mozambique","Cidade De Maputo",-25.9666996002197,32.5833015441895,"lat/lon reported in WWARN","2014-01-01","2014-12-31","2014-07-02","Automated midpoint",0,0,NA,NA,NA,"2014","mdr1:86:N"
"wwarn_wwarn_65090_Menard","wwarn_65090_Ménard","peer_reviewed","Ménard",1000,"https://pubmed.ncbi.nlm.nih.gov/27332904","wwarn_wwarn_65090_Menard_WWARN_Dakar_2013","Senegal","Dakar",14.7644996643066,-17.3659992218018,"lat/lon reported in WWARN","2013-01-01","2013-12-31","2013-07-02","Automated midpoint",0,0,NA,NA,NA,"2013","mdr1:86:N"
"wwarn_wwarn_65090_Menard","wwarn_65090_Ménard","peer_reviewed","Ménard",1000,"https://pubmed.ncbi.nlm.nih.gov/27332904","wwarn_wwarn_65090_Menard_WWARN_GreaterAccra_2013","Ghana","Greater Accra",5.55000019073486,-0.200000002980232,"lat/lon reported in WWARN","2013-01-01","2013-12-31","2013-07-02","Automated midpoint",0,0,NA,NA,NA,"2013","mdr1:86:N"
"wwarn_wwarn_65090_Menard","wwarn_65090_Ménard","peer_reviewed","Ménard",1000,"https://pubmed.ncbi.nlm.nih.gov/27332904","wwarn_wwarn_65090_Menard_WWARN_GreaterAccra_2014","Ghana","Greater Accra",5.55000019073486,-0.200000002980232,"lat/lon reported in WWARN","2014-01-01","2014-12-31","2014-07-02","Automated midpoint",0,0,NA,NA,NA,"2014","mdr1:86:N"
"wwarn_wwarn_65090_Menard","wwarn_65090_Ménard","peer_reviewed","Ménard",1000,"https://pubmed.ncbi.nlm.nih.gov/27332904","wwarn_wwarn_65090_Menard_WWARN_Oromia_2012","Ethiopia","Oromia",8.9634895324707,38.6380996704102,"lat/lon reported in WWARN","2012-01-01","2012-12-31","2012-07-01","Automated midpoint",0,0,NA,NA,NA,"2012","mdr1:86:N"
"wwarn_wwarn_65090_Menard","wwarn_65090_Ménard","peer_reviewed","Ménard",1000,"https://pubmed.ncbi.nlm.nih.gov/27332904","wwarn_wwarn_65090_Menard_WWARN_Kisumu_2014","Kenya","Kisumu",-0.175083994865417,34.9154014587402,"lat/lon reported in WWARN","2014-01-01","2014-12-31","2014-07-02","Automated midpoint",0,0,NA,NA,NA,"2014","mdr1:86:N"
"wwarn_wwarn_65090_Menard","wwarn_65090_Ménard","peer_reviewed","Ménard",1000,"https://pubmed.ncbi.nlm.nih.gov/27332904","wwarn_wwarn_65090_Menard_WWARN_Analamanga_2013","Madagascar","Analamanga",-18.887300491333,47.3723983764648,"lat/lon reported in WWARN","2013-01-01","2013-12-31","2013-07-02","Automated midpoint",0,0,NA,NA,NA,"2013","mdr1:86:N"
"wwarn_wwarn_65090_Menard","wwarn_65090_Ménard","peer_reviewed","Ménard",1000,"https://pubmed.ncbi.nlm.nih.gov/27332904","wwarn_wwarn_65090_Menard_WWARN_Koulikoro_2014","Mali","Koulikoro",12.6128997802734,-8.13560009002686,"lat/lon reported in WWARN","2014-01-01","2014-12-31","2014-07-02","Automated midpoint",0,0,NA,NA,NA,"2014","mdr1:86:N"
"wwarn_wwarn_65090_Menard","wwarn_65090_Ménard","peer_reviewed","Ménard",1000,"https://pubmed.ncbi.nlm.nih.gov/27332904","wwarn_wwarn_65090_Menard_WWARN_KanifingMunicipalCouncil_2014","Gambia","Kanifing Municipal Council",13.4525003433228,-16.5893001556396,"lat/lon reported in WWARN","2014-01-01","2014-12-31","2014-07-02","Automated midpoint",0,0,NA,NA,NA,"2014","mdr1:86:N"
"wwarn_wwarn_65090_Menard","wwarn_65090_Ménard","peer_reviewed","Ménard",1000,"https://pubmed.ncbi.nlm.nih.gov/27332904","wwarn_wwarn_65090_Menard_WWARN_Bissau_2013","Guinea-Bissau","Bissau",11.8816995620728,-15.6177997589111,"lat/lon reported in WWARN","2013-01-01","2013-12-31","2013-07-02","Automated midpoint",0,0,NA,NA,NA,"2013","mdr1:86:N"
"wwarn_wwarn_65090_Menard","wwarn_65090_Ménard","peer_reviewed","Ménard",1000,"https://pubmed.ncbi.nlm.nih.gov/27332904","wwarn_wwarn_65090_Menard_WWARN_Brazzaville_2013","Congo - Brazzaville","Brazzaville",-4.26667022705078,15.2833003997803,"lat/lon reported in WWARN","2013-01-01","2013-12-31","2013-07-02","Automated midpoint",0,0,NA,NA,NA,"2013","mdr1:86:N"
"wwarn_wwarn_65090_Menard","wwarn_65090_Ménard","peer_reviewed","Ménard",1000,"https://pubmed.ncbi.nlm.nih.gov/27332904","wwarn_wwarn_65090_Menard_WWARN_Brazzaville_2014","Congo - Brazzaville","Brazzaville",-4.26667022705078,15.2833003997803,"lat/lon reported in WWARN","2014-01-01","2014-12-31","2014-07-02","Automated midpoint",0,0,NA,NA,NA,"2014","mdr1:86:N"
"wwarn_wwarn_65090_Menard","wwarn_65090_Ménard","peer_reviewed","Ménard",1000,"https://pubmed.ncbi.nlm.nih.gov/27332904","wwarn_wwarn_65090_Menard_WWARN_LakeTanganyika_2013","Burundi","Lake Tanganyika",-3.37512993812561,29.2852993011475,"lat/lon reported in WWARN","2013-01-01","2013-12-31","2013-07-02","Automated midpoint",0,0,NA,NA,NA,"2013","mdr1:86:N"
"wwarn_wwarn_65090_Menard","wwarn_65090_Ménard","peer_reviewed","Ménard",1000,"https://pubmed.ncbi.nlm.nih.gov/27332904","wwarn_wwarn_65090_Menard_WWARN_WesternCape_2014","South Africa","Western Cape",-33.9123992919922,18.0956001281738,"lat/lon reported in WWARN","2014-01-01","2014-12-31","2014-07-02","Automated midpoint",0,0,NA,NA,NA,"2014","mdr1:86:N"
"wwarn_wwarn_65090_Menard","wwarn_65090_Ménard","peer_reviewed","Ménard",1000,"https://pubmed.ncbi.nlm.nih.gov/27332904","wwarn_wwarn_65090_Menard_WWARN_Conakry_2014","Guinea","Conakry",9.602219581604,-13.791600227356,"lat/lon reported in WWARN","2014-01-01","2014-12-31","2014-07-02","Automated midpoint",0,0,NA,NA,NA,"2014","mdr1:86:N"
"wwarn_wwarn_65090_Menard","wwarn_65090_Ménard","peer_reviewed","Ménard",1000,"https://pubmed.ncbi.nlm.nih.gov/27332904","wwarn_wwarn_65090_Menard_WWARN_VilledeNDjamena_2014","Chad","Ville de N'Djamena",12.1291999816895,15.0282001495361,"lat/lon reported in WWARN","2014-01-01","2014-12-31","2014-07-02","Automated midpoint",0,0,NA,NA,NA,"2014","mdr1:86:N"
"wwarn_wwarn_65090_Menard","wwarn_65090_Ménard","peer_reviewed","Ménard",1000,"https://pubmed.ncbi.nlm.nih.gov/27332904","wwarn_wwarn_65090_Menard_WWARN_Dakar_2012","Senegal","Dakar",14.7644996643066,-17.3659992218018,"lat/lon reported in WWARN","2012-01-01","2012-12-31","2012-07-01","Automated midpoint",0,0,NA,NA,NA,"2012","mdr1:86:N"
"wwarn_wwarn_65090_Menard","wwarn_65090_Ménard","peer_reviewed","Ménard",1000,"https://pubmed.ncbi.nlm.nih.gov/27332904","wwarn_wwarn_65090_Menard_WWARN_Dakar_2014","Senegal","Dakar",14.7644996643066,-17.3659992218018,"lat/lon reported in WWARN","2014-01-01","2014-12-31","2014-07-02","Automated midpoint",0,0,NA,NA,NA,"2014","mdr1:86:N"
"wwarn_wwarn_65090_Menard","wwarn_65090_Ménard","peer_reviewed","Ménard",1000,"https://pubmed.ncbi.nlm.nih.gov/27332904","wwarn_wwarn_65090_Menard_WWARN_Dar_es_salaam_2014","Tanzania","Dar-es-salaam",-6.7693600654602,39.114200592041,"lat/lon reported in WWARN","2014-01-01","2014-12-31","2014-07-02","Automated midpoint",0,0,NA,NA,NA,"2014","mdr1:86:N"
"wwarn_wwarn_65090_Menard","wwarn_65090_Ménard","peer_reviewed","Ménard",1000,"https://pubmed.ncbi.nlm.nih.gov/27332904","wwarn_wwarn_65090_Menard_WWARN_WesternArea_2013","Sierra Leone","Western Area",8.45456027984619,-13.2937002182007,"lat/lon reported in WWARN","2013-01-01","2013-12-31","2013-07-02","Automated midpoint",0,0,NA,NA,NA,"2013","mdr1:86:N"
"wwarn_wwarn_65090_Menard","wwarn_65090_Ménard","peer_reviewed","Ménard",1000,"https://pubmed.ncbi.nlm.nih.gov/27332904","wwarn_wwarn_65090_Menard_WWARN_WesternArea_2014","Sierra Leone","Western Area",8.45456027984619,-13.2937002182007,"lat/lon reported in WWARN","2014-01-01","2014-12-31","2014-07-02","Automated midpoint",0,0,NA,NA,NA,"2014","mdr1:86:N"
"wwarn_wwarn_65090_Menard","wwarn_65090_Ménard","peer_reviewed","Ménard",1000,"https://pubmed.ncbi.nlm.nih.gov/27332904","wwarn_wwarn_65090_Menard_WWARN_Harare_2014","Zimbabwe","Harare",-17.8162994384766,30.9167995452881,"lat/lon reported in WWARN","2014-01-01","2014-12-31","2014-07-02","Automated midpoint",0,0,NA,NA,NA,"2014","mdr1:86:N"
"wwarn_wwarn_65090_Menard","wwarn_65090_Ménard","peer_reviewed","Ménard",1000,"https://pubmed.ncbi.nlm.nih.gov/27332904","wwarn_wwarn_65090_Menard_WWARN_ShabelleHoose_2013","Somalia","Shabelle Hoose",1.80663001537323,44.6874008178711,"lat/lon reported in WWARN","2013-01-01","2013-12-31","2013-07-02","Automated midpoint",0,0,NA,NA,NA,"2013","mdr1:86:N"
"wwarn_wwarn_65090_Menard","wwarn_65090_Ménard","peer_reviewed","Ménard",1000,"https://pubmed.ncbi.nlm.nih.gov/27332904","wwarn_wwarn_65090_Menard_WWARN_ShabelleDhexe_2013","Somalia","Shabelle Dhexe",2.7770299911499,45.4905014038086,"lat/lon reported in WWARN","2013-01-01","2013-12-31","2013-07-02","Automated midpoint",0,0,NA,NA,NA,"2013","mdr1:86:N"
"wwarn_wwarn_65090_Menard","wwarn_65090_Ménard","peer_reviewed","Ménard",1000,"https://pubmed.ncbi.nlm.nih.gov/27332904","wwarn_wwarn_65090_Menard_WWARN_CentralEquatoria_2014","South Sudan","Central Equatoria",4.86085987091064,31.5070991516113,"lat/lon reported in WWARN","2014-01-01","2014-12-31","2014-07-02","Automated midpoint",0,0,NA,NA,NA,"2014","mdr1:86:N"
"wwarn_wwarn_65090_Menard","wwarn_65090_Ménard","peer_reviewed","Ménard",1000,"https://pubmed.ncbi.nlm.nih.gov/27332904","wwarn_wwarn_65090_Menard_WWARN_Khartoum_2013","Sudan","Khartoum",15.5017995834351,32.4324989318848,"lat/lon reported in WWARN","2013-01-01","2013-12-31","2013-07-02","Automated midpoint",0,0,NA,NA,NA,"2013","mdr1:86:N"
"wwarn_wwarn_65090_Menard","wwarn_65090_Ménard","peer_reviewed","Ménard",1000,"https://pubmed.ncbi.nlm.nih.gov/27332904","wwarn_wwarn_65090_Menard_WWARN_Khartoum_2014","Sudan","Khartoum",15.5017995834351,32.4324989318848,"lat/lon reported in WWARN","2014-01-01","2014-12-31","2014-07-02","Automated midpoint",0,0,NA,NA,NA,"2014","mdr1:86:N"
"wwarn_wwarn_65090_Menard","wwarn_65090_Ménard","peer_reviewed","Ménard",1000,"https://pubmed.ncbi.nlm.nih.gov/27332904","wwarn_wwarn_65090_Menard_WWARN_KigaliCity_2014","Rwanda","Kigali City",-1.95463001728058,30.0345001220703,"lat/lon reported in WWARN","2014-01-01","2014-12-31","2014-07-02","Automated midpoint",0,0,NA,NA,NA,"2014","mdr1:86:N"
"wwarn_wwarn_65090_Menard","wwarn_65090_Ménard","peer_reviewed","Ménard",1000,"https://pubmed.ncbi.nlm.nih.gov/27332904","wwarn_wwarn_65090_Menard_WWARN_Kinshasa_2014","Congo - Kinshasa","Kinshasa",-4.33166980743408,15.3138999938965,"lat/lon reported in WWARN","2014-01-01","2014-12-31","2014-07-02","Automated midpoint",0,0,NA,NA,NA,"2014","mdr1:86:N"
"wwarn_wwarn_65090_Menard","wwarn_65090_Ménard","peer_reviewed","Ménard",1000,"https://pubmed.ncbi.nlm.nih.gov/27332904","wwarn_wwarn_65090_Menard_WWARN_Estuaire_2014","Gabon","Estuaire",0.411742985248566,9.29454040527344,"lat/lon reported in WWARN","2014-01-01","2014-12-31","2014-07-02","Automated midpoint",0,0,NA,NA,NA,"2014","mdr1:86:N"
"wwarn_wwarn_65090_Menard","wwarn_65090_Ménard","peer_reviewed","Ménard",1000,"https://pubmed.ncbi.nlm.nih.gov/27332904","wwarn_wwarn_65090_Menard_WWARN_CentralRegion_2014","Malawi","Central Region",-13.9631996154785,33.7120018005371,"lat/lon reported in WWARN","2014-01-01","2014-12-31","2014-07-02","Automated midpoint",0,0,NA,NA,NA,"2014","mdr1:86:N"
"wwarn_wwarn_65090_Menard","wwarn_65090_Ménard","peer_reviewed","Ménard",1000,"https://pubmed.ncbi.nlm.nih.gov/27332904","wwarn_wwarn_65090_Menard_WWARN_Maritime_2014","Togo","Maritime",6.18248987197876,1.17665004730225,"lat/lon reported in WWARN","2014-01-01","2014-12-31","2014-07-02","Automated midpoint",0,0,NA,NA,NA,"2014","mdr1:86:N"
"wwarn_wwarn_65090_Menard","wwarn_65090_Ménard","peer_reviewed","Ménard",1000,"https://pubmed.ncbi.nlm.nih.gov/27332904","wwarn_wwarn_65090_Menard_WWARN_Luanda_2012","Angola","Luanda",-8.83833026885986,13.2343997955322,"lat/lon reported in WWARN","2012-01-01","2012-12-31","2012-07-01","Automated midpoint",0,0,NA,NA,NA,"2012","mdr1:86:N"
"wwarn_wwarn_65090_Menard","wwarn_65090_Ménard","peer_reviewed","Ménard",1000,"https://pubmed.ncbi.nlm.nih.gov/27332904","wwarn_wwarn_65090_Menard_WWARN_Luanda_2014","Angola","Luanda",-8.83833026885986,13.2343997955322,"lat/lon reported in WWARN","2014-01-01","2014-12-31","2014-07-02","Automated midpoint",0,0,NA,NA,NA,"2014","mdr1:86:N"
"wwarn_wwarn_65090_Menard","wwarn_65090_Ménard","peer_reviewed","Ménard",1000,"https://pubmed.ncbi.nlm.nih.gov/27332904","wwarn_wwarn_65090_Menard_WWARN_Huila_2011","Angola","Huila",-14.9104995727539,13.4584999084473,"lat/lon reported in WWARN","2011-01-01","2011-12-31","2011-07-02","Automated midpoint",0,0,NA,NA,NA,"2011","mdr1:86:N"
"wwarn_wwarn_65090_Menard","wwarn_65090_Ménard","peer_reviewed","Ménard",1000,"https://pubmed.ncbi.nlm.nih.gov/27332904","wwarn_wwarn_65090_Menard_WWARN_Lusaka_2012","Zambia","Lusaka",-15.4165000915527,28.2036991119385,"lat/lon reported in WWARN","2012-01-01","2012-12-31","2012-07-01","Automated midpoint",0,0,NA,NA,NA,"2012","mdr1:86:N"
"wwarn_wwarn_65090_Menard","wwarn_65090_Ménard","peer_reviewed","Ménard",1000,"https://pubmed.ncbi.nlm.nih.gov/27332904","wwarn_wwarn_65090_Menard_WWARN_Lusaka_2014","Zambia","Lusaka",-15.4165000915527,28.2036991119385,"lat/lon reported in WWARN","2014-01-01","2014-12-31","2014-07-02","Automated midpoint",0,0,NA,NA,NA,"2014","mdr1:86:N"
"wwarn_wwarn_65090_Menard","wwarn_65090_Ménard","peer_reviewed","Ménard",1000,"https://pubmed.ncbi.nlm.nih.gov/27332904","wwarn_wwarn_65090_Menard_WWARN_BiokoNorte_2013","Equatorial Guinea","Bioko Norte",3.75353002548218,8.70697021484375,"lat/lon reported in WWARN","2013-01-01","2013-12-31","2013-07-02","Automated midpoint",0,0,NA,NA,NA,"2013","mdr1:86:N"
"wwarn_wwarn_65090_Menard","wwarn_65090_Ménard","peer_reviewed","Ménard",1000,"https://pubmed.ncbi.nlm.nih.gov/27332904","wwarn_wwarn_65090_Menard_WWARN_BiokoNorte_2014","Equatorial Guinea","Bioko Norte",3.75353002548218,8.70697021484375,"lat/lon reported in WWARN","2014-01-01","2014-12-31","2014-07-02","Automated midpoint",0,0,NA,NA,NA,"2014","mdr1:86:N"
"wwarn_wwarn_65090_Menard","wwarn_65090_Ménard","peer_reviewed","Ménard",1000,"https://pubmed.ncbi.nlm.nih.gov/27332904","wwarn_wwarn_65090_Menard_WWARN_Western_2014","Uganda","Western",-0.611434996128082,30.6193008422852,"lat/lon reported in WWARN","2014-01-01","2014-12-31","2014-07-02","Automated midpoint",0,0,NA,NA,NA,"2014","mdr1:86:N"
"wwarn_wwarn_65090_Menard","wwarn_65090_Ménard","peer_reviewed","Ménard",1000,"https://pubmed.ncbi.nlm.nih.gov/27332904","wwarn_wwarn_65090_Menard_WWARN_Montserrado_2014","Liberia","Montserrado",6.29582023620605,-10.8045997619629,"lat/lon reported in WWARN","2014-01-01","2014-12-31","2014-07-02","Automated midpoint",0,0,NA,NA,NA,"2014","mdr1:86:N"
"wwarn_wwarn_65090_Menard","wwarn_65090_Ménard","peer_reviewed","Ménard",1000,"https://pubmed.ncbi.nlm.nih.gov/27332904","wwarn_wwarn_65090_Menard_WWARN_Ngazidja_2014","Comoros","Ngazidja",-11.7172002792358,43.2472991943359,"lat/lon reported in WWARN","2014-01-01","2014-12-31","2014-07-02","Automated midpoint",0,0,NA,NA,NA,"2014","mdr1:86:N"
"wwarn_wwarn_65090_Menard","wwarn_65090_Ménard","peer_reviewed","Ménard",1000,"https://pubmed.ncbi.nlm.nih.gov/27332904","wwarn_wwarn_65090_Menard_WWARN_Niamey_2013","Niger","Niamey",13.5214004516602,2.10527992248535,"lat/lon reported in WWARN","2013-01-01","2013-12-31","2013-07-02","Automated midpoint",0,0,NA,NA,NA,"2013","mdr1:86:N"
"wwarn_wwarn_65090_Menard","wwarn_65090_Ménard","peer_reviewed","Ménard",1000,"https://pubmed.ncbi.nlm.nih.gov/27332904","wwarn_wwarn_65090_Menard_WWARN_Trarza_2013","Mauritania","Trarza",18.148099899292,-16.1996002197266,"lat/lon reported in WWARN","2013-01-01","2013-12-31","2013-07-02","Automated midpoint",0,0,NA,NA,NA,"2013","mdr1:86:N"
"wwarn_wwarn_65090_Menard","wwarn_65090_Ménard","peer_reviewed","Ménard",1000,"https://pubmed.ncbi.nlm.nih.gov/27332904","wwarn_wwarn_65090_Menard_WWARN_Centre_2014","Burkina Faso","Centre",12.3713998794556,-1.51965999603271,"lat/lon reported in WWARN","2014-01-01","2014-12-31","2014-07-02","Automated midpoint",0,0,NA,NA,NA,"2014","mdr1:86:N"
"wwarn_wwarn_65090_Menard","wwarn_65090_Ménard","peer_reviewed","Ménard",1000,"https://pubmed.ncbi.nlm.nih.gov/27332904","wwarn_wwarn_65090_Menard_WWARN_Oueme_2014","Benin","Oueme",6.49686002731323,2.62884998321533,"lat/lon reported in WWARN","2014-01-01","2014-12-31","2014-07-02","Automated midpoint",0,0,NA,NA,NA,"2014","mdr1:86:N"
"wwarn_wwarn_65090_Menard","wwarn_65090_Ménard","peer_reviewed","Ménard",1000,"https://pubmed.ncbi.nlm.nih.gov/27332904","wwarn_wwarn_65090_Menard_WWARN_Tambacounda_2012","Senegal","Tambacounda",13.8641996383667,-14.4722003936768,"lat/lon reported in WWARN","2012-01-01","2012-12-31","2012-07-01","Automated midpoint",0,0,NA,NA,NA,"2012","mdr1:86:N"
"wwarn_wwarn_65090_Menard","wwarn_65090_Ménard","peer_reviewed","Ménard",1000,"https://pubmed.ncbi.nlm.nih.gov/27332904","wwarn_wwarn_65090_Menard_WWARN_Yamoussoukro_2014","Côte d’Ivoire","Yamoussoukro",6.81622982025146,-5.35118007659912,"lat/lon reported in WWARN","2014-01-01","2014-12-31","2014-07-02","Automated midpoint",0,0,NA,NA,NA,"2014","mdr1:86:N"
"wwarn_wwarn_18612_Zhang","wwarn_18612_Zhang","peer_reviewed","Zhang",1000,"https://pubmed.ncbi.nlm.nih.gov/29436339","wwarn_wwarn_18612_Zhang_WWARN_CidadeDeMaputo_2014","Mozambique","Cidade De Maputo",-25.9666996002197,32.5833015441895,"lat/lon reported in WWARN","2014-01-01","2014-12-31","2014-07-02","Automated midpoint",0,0,NA,NA,NA,"2014","mdr1:86:N"
"wwarn_wwarn_18612_Zhang","wwarn_18612_Zhang","peer_reviewed","Zhang",1000,"https://pubmed.ncbi.nlm.nih.gov/29436339","wwarn_wwarn_18612_Zhang_WWARN_GreaterAccra_2014","Ghana","Greater Accra",5.55000019073486,-0.200000002980232,"lat/lon reported in WWARN","2014-01-01","2014-12-31","2014-07-02","Automated midpoint",0,0,NA,NA,NA,"2014","mdr1:86:N"
"wwarn_wwarn_18612_Zhang","wwarn_18612_Zhang","peer_reviewed","Zhang",1000,"https://pubmed.ncbi.nlm.nih.gov/29436339","wwarn_wwarn_18612_Zhang_WWARN_Oromia_2014","Ethiopia","Oromia",8.9634895324707,38.6380996704102,"lat/lon reported in WWARN","2014-01-01","2014-12-31","2014-07-02","Automated midpoint",0,0,NA,NA,NA,"2014","mdr1:86:N"
"wwarn_wwarn_18612_Zhang","wwarn_18612_Zhang","peer_reviewed","Zhang",1000,"https://pubmed.ncbi.nlm.nih.gov/29436339","wwarn_wwarn_18612_Zhang_WWARN_Alger_2014","Algeria","Alger",36.7537689208984,3.05875611305237,"lat/lon reported in WWARN","2014-01-01","2014-12-31","2014-07-02","Automated midpoint",0,0,NA,NA,NA,"2014","mdr1:86:N"
"wwarn_wwarn_18612_Zhang","wwarn_18612_Zhang","peer_reviewed","Zhang",1000,"https://pubmed.ncbi.nlm.nih.gov/29436339","wwarn_wwarn_18612_Zhang_WWARN_Analamanga_2014","Madagascar","Analamanga",-18.887300491333,47.3723983764648,"lat/lon reported in WWARN","2014-01-01","2014-12-31","2014-07-02","Automated midpoint",0,0,NA,NA,NA,"2014","mdr1:86:N"
"wwarn_wwarn_18612_Zhang","wwarn_18612_Zhang","peer_reviewed","Zhang",1000,"https://pubmed.ncbi.nlm.nih.gov/29436339","wwarn_wwarn_18612_Zhang_WWARN_SouthernRegion_2014","Malawi","Southern Region",-15.7861003875732,35.0057983398438,"lat/lon reported in WWARN","2014-01-01","2014-12-31","2014-07-02","Automated midpoint",0,0,NA,NA,NA,"2014","mdr1:86:N"
"wwarn_wwarn_18612_Zhang","wwarn_18612_Zhang","peer_reviewed","Zhang",1000,"https://pubmed.ncbi.nlm.nih.gov/29436339","wwarn_wwarn_18612_Zhang_WWARN_Brazzaville_2014","Congo - Brazzaville","Brazzaville",-4.26667022705078,15.2833003997803,"lat/lon reported in WWARN","2014-01-01","2014-12-31","2014-07-02","Automated midpoint",0,0,NA,NA,NA,"2014","mdr1:86:N"
"wwarn_wwarn_18612_Zhang","wwarn_18612_Zhang","peer_reviewed","Zhang",1000,"https://pubmed.ncbi.nlm.nih.gov/29436339","wwarn_wwarn_18612_Zhang_WWARN_Conakry_2014","Guinea","Conakry",9.602219581604,-13.791600227356,"lat/lon reported in WWARN","2014-01-01","2014-12-31","2014-07-02","Automated midpoint",0,0,NA,NA,NA,"2014","mdr1:86:N"
"wwarn_wwarn_18612_Zhang","wwarn_18612_Zhang","peer_reviewed","Zhang",1000,"https://pubmed.ncbi.nlm.nih.gov/29436339","wwarn_wwarn_18612_Zhang_WWARN_VilledeNDjamena_2014","Chad","Ville de N'Djamena",12.1291999816895,15.0282001495361,"lat/lon reported in WWARN","2014-01-01","2014-12-31","2014-07-02","Automated midpoint",0,0,NA,NA,NA,"2014","mdr1:86:N"
"wwarn_wwarn_18612_Zhang","wwarn_18612_Zhang","peer_reviewed","Zhang",1000,"https://pubmed.ncbi.nlm.nih.gov/29436339","wwarn_wwarn_18612_Zhang_WWARN_Dodoma_2014","Tanzania","Dodoma",-6.16848993301392,35.7238998413086,"lat/lon reported in WWARN","2014-01-01","2014-12-31","2014-07-02","Automated midpoint",0,0,NA,NA,NA,"2014","mdr1:86:N"
"wwarn_wwarn_18612_Zhang","wwarn_18612_Zhang","peer_reviewed","Zhang",1000,"https://pubmed.ncbi.nlm.nih.gov/29436339","wwarn_wwarn_18612_Zhang_WWARN_WesternArea_2014","Sierra Leone","Western Area",8.45456027984619,-13.2937002182007,"lat/lon reported in WWARN","2014-01-01","2014-12-31","2014-07-02","Automated midpoint",0,0,NA,NA,NA,"2014","mdr1:86:N"
"wwarn_wwarn_18612_Zhang","wwarn_18612_Zhang","peer_reviewed","Zhang",1000,"https://pubmed.ncbi.nlm.nih.gov/29436339","wwarn_wwarn_18612_Zhang_WWARN_CentralEquatoria_2014","South Sudan","Central Equatoria",4.86085987091064,31.5070991516113,"lat/lon reported in WWARN","2014-01-01","2014-12-31","2014-07-02","Automated midpoint",0,0,NA,NA,NA,"2014","mdr1:86:N"
"wwarn_wwarn_18612_Zhang","wwarn_18612_Zhang","peer_reviewed","Zhang",1000,"https://pubmed.ncbi.nlm.nih.gov/29436339","wwarn_wwarn_18612_Zhang_WWARN_Central_2014","Uganda","Central",0.313611000776291,32.5811004638672,"lat/lon reported in WWARN","2014-01-01","2014-12-31","2014-07-02","Automated midpoint",0,0,NA,NA,NA,"2014","mdr1:86:N"
"wwarn_wwarn_18612_Zhang","wwarn_18612_Zhang","peer_reviewed","Zhang",1000,"https://pubmed.ncbi.nlm.nih.gov/29436339","wwarn_wwarn_18612_Zhang_WWARN_Kinshasa_2014","Congo - Kinshasa","Kinshasa",-4.33166980743408,15.3138999938965,"lat/lon reported in WWARN","2014-01-01","2014-12-31","2014-07-02","Automated midpoint",0,0,NA,NA,NA,"2014","mdr1:86:N"
"wwarn_wwarn_18612_Zhang","wwarn_18612_Zhang","peer_reviewed","Zhang",1000,"https://pubmed.ncbi.nlm.nih.gov/29436339","wwarn_wwarn_18612_Zhang_WWARN_Lagos_2014","Nigeria","Lagos",6.51941013336182,3.38456988334656,"lat/lon reported in WWARN","2014-01-01","2014-12-31","2014-07-02","Automated midpoint",0,0,NA,NA,NA,"2014","mdr1:86:N"
"wwarn_wwarn_18612_Zhang","wwarn_18612_Zhang","peer_reviewed","Zhang",1000,"https://pubmed.ncbi.nlm.nih.gov/29436339","wwarn_wwarn_18612_Zhang_WWARN_Estuaire_2014","Gabon","Estuaire",0.411742985248566,9.29454040527344,"lat/lon reported in WWARN","2014-01-01","2014-12-31","2014-07-02","Automated midpoint",0,0,NA,NA,NA,"2014","mdr1:86:N"
"wwarn_wwarn_18612_Zhang","wwarn_18612_Zhang","peer_reviewed","Zhang",1000,"https://pubmed.ncbi.nlm.nih.gov/29436339","wwarn_wwarn_18612_Zhang_WWARN_Maritime_2014","Togo","Maritime",6.18248987197876,1.17665004730225,"lat/lon reported in WWARN","2014-01-01","2014-12-31","2014-07-02","Automated midpoint",0,0,NA,NA,NA,"2014","mdr1:86:N"
"wwarn_wwarn_18612_Zhang","wwarn_18612_Zhang","peer_reviewed","Zhang",1000,"https://pubmed.ncbi.nlm.nih.gov/29436339","wwarn_wwarn_18612_Zhang_WWARN_Luanda_2014","Angola","Luanda",-8.83833026885986,13.2343997955322,"lat/lon reported in WWARN","2014-01-01","2014-12-31","2014-07-02","Automated midpoint",0,0,NA,NA,NA,"2014","mdr1:86:N"
"wwarn_wwarn_18612_Zhang","wwarn_18612_Zhang","peer_reviewed","Zhang",1000,"https://pubmed.ncbi.nlm.nih.gov/29436339","wwarn_wwarn_18612_Zhang_WWARN_Lusaka_2014","Zambia","Lusaka",-15.4165000915527,28.2036991119385,"lat/lon reported in WWARN","2014-01-01","2014-12-31","2014-07-02","Automated midpoint",0,0,NA,NA,NA,"2014","mdr1:86:N"
"wwarn_wwarn_18612_Zhang","wwarn_18612_Zhang","peer_reviewed","Zhang",1000,"https://pubmed.ncbi.nlm.nih.gov/29436339","wwarn_wwarn_18612_Zhang_WWARN_BiokoNorte_2014","Equatorial Guinea","Bioko Norte",3.75353002548218,8.70697021484375,"lat/lon reported in WWARN","2014-01-01","2014-12-31","2014-07-02","Automated midpoint",0,0,NA,NA,NA,"2014","mdr1:86:N"
"wwarn_wwarn_18612_Zhang","wwarn_18612_Zhang","peer_reviewed","Zhang",1000,"https://pubmed.ncbi.nlm.nih.gov/29436339","wwarn_wwarn_18612_Zhang_WWARN_NairobiCity_2014","Kenya","Nairobi City",-1.30446004867554,36.7072982788086,"lat/lon reported in WWARN","2014-01-01","2014-12-31","2014-07-02","Automated midpoint",0,0,NA,NA,NA,"2014","mdr1:86:N"
"wwarn_wwarn_18612_Zhang","wwarn_18612_Zhang","peer_reviewed","Zhang",1000,"https://pubmed.ncbi.nlm.nih.gov/29436339","wwarn_wwarn_18612_Zhang_WWARN_Niamey_2014","Niger","Niamey",13.5214004516602,2.10527992248535,"lat/lon reported in WWARN","2014-01-01","2014-12-31","2014-07-02","Automated midpoint",0,0,NA,NA,NA,"2014","mdr1:86:N"
"wwarn_wwarn_18612_Zhang","wwarn_18612_Zhang","peer_reviewed","Zhang",1000,"https://pubmed.ncbi.nlm.nih.gov/29436339","wwarn_wwarn_18612_Zhang_WWARN_Oueme_2014","Benin","Oueme",6.49686002731323,2.62884998321533,"lat/lon reported in WWARN","2014-01-01","2014-12-31","2014-07-02","Automated midpoint",0,0,NA,NA,NA,"2014","mdr1:86:N"
"wwarn_wwarn_18612_Zhang","wwarn_18612_Zhang","peer_reviewed","Zhang",1000,"https://pubmed.ncbi.nlm.nih.gov/29436339","wwarn_wwarn_18612_Zhang_WWARN_Yamoussoukro_2014","Côte d’Ivoire","Yamoussoukro",6.81622982025146,-5.35118007659912,"lat/lon reported in WWARN","2014-01-01","2014-12-31","2014-07-02","Automated midpoint",0,0,NA,NA,NA,"2014","mdr1:86:N"
"wwarn_wwarn_18612_Zhang","wwarn_18612_Zhang","peer_reviewed","Zhang",1000,"https://pubmed.ncbi.nlm.nih.gov/29436339","wwarn_wwarn_18612_Zhang_WWARN_Centre_2014","Cameroon","Centre",3.86666989326477,11.5166997909546,"lat/lon reported in WWARN","2014-01-01","2014-12-31","2014-07-02","Automated midpoint",0,0,NA,NA,NA,"2014","mdr1:86:N"
"geoff_S0103Ebel2021","geoff_S0103Ebel2021","peer_reviewed","Ebel",2021,"https://pubmed.ncbi.nlm.nih.gov/33827587/","geoff_S0103Ebel2021_Cabinda_2018","Angola","cabinda",-5.55935045775411,12.1970396767103,"Literature review sourced lat/lon","2018-10-01","2018-12-31","2018-11-15","Automated midpoint",35,38,92.1052631578947,78.6226708819382,98.341352413547,"2018","mdr1:86:N"
"who_1458","University of Stanford","other",NA,2023,"https://pubmed.ncbi.nlm.nih.gov/33827587/","who_1458_Cabinda_2018","Angola","Cabinda",-5.56,12.19,"lat/lon sourced from who meta file","2018-01-01","2018-12-31","2018-07-02","Automated midpoint",0,0,NA,NA,NA,"2018","mdr1:86:N"
"geoff_S0118NzoumbouBoko2020","geoff_S0118NzoumbouBoko2020","peer_reviewed","Nzoumbou-Boko",2020,"https://pubmed.ncbi.nlm.nih.gov/32448203/","geoff_S0118NzoumbouBoko2020_BanguiPaediatricComplex_2018","Central African Republic","bangui_paediatric_complex",4.394915436,18.55819387,"Literature review sourced lat/lon","2018-11-01","2019-03-31","2019-01-15","Automated midpoint",0,0,NA,NA,NA,"2019","mdr1:86:N"
"geoff_S0118NzoumbouBoko2020","geoff_S0118NzoumbouBoko2020","peer_reviewed","Nzoumbou-Boko",2020,"https://pubmed.ncbi.nlm.nih.gov/32448203/","geoff_S0118NzoumbouBoko2020_InstitutPasteurBangui_2017","Central African Republic","institut_pasteur_bangui",4.374030247,18.5738874,"Literature review sourced lat/lon","2017-09-01","2018-02-28","2017-11-30","Automated midpoint",0,0,NA,NA,NA,"2017","mdr1:86:N"
"who_1269","Institut Pasteur de Bangui","other",NA,2023,"https://pubmed.ncbi.nlm.nih.gov/32448203/","who_1269_BanguiPrefecture_2018","Central African Republic","Bangui Prefecture",4.37333,18.56278,"lat/lon sourced from who meta file","2018-01-01","2018-12-31","2018-07-02","Automated midpoint",0,0,NA,NA,NA,"2018","mdr1:86:N"
"geoff_S0141Beavogui2020","geoff_S0141Beavogui2020","peer_reviewed","Beavogui",2020,"https://pubmed.ncbi.nlm.nih.gov/32580771","geoff_S0141Beavogui2020_Guinea_2016","Guinea","guinea",10.4318514094992,-12.7878723641016,"Literature review sourced lat/lon","2016-07-01","2016-10-31","2016-08-31","Automated midpoint",0,379,0,0,0.96859769723856,"2016","mdr1:86:N"
"who_1088","National Institute of Parasitic Diseases, Chinese Center for Disease Control and Prevention, Key Laboratory of Parasite and Vector Biology, Schistosomiasis and Filariasis, MOH, and WHO Collaborating Centre for Malaria","other",NA,2023,"https://pubmed.ncbi.nlm.nih.gov/32019571/","who_1088_NA_2016","Guinea",NA,10.37959,-13.18674,"lat/lon sourced from who meta file","2016-01-01","2016-12-31","2016-07-01","Automated midpoint",0,0,NA,NA,NA,"2016","mdr1:86:N"
"geoff_S0031Bergmann2021","geoff_S0031Bergmann2021","peer_reviewed","Bergmann",2021,"https://wwwnc.cdc.gov/eid/article/27/1/20-3527_article","geoff_S0031Bergmann2021_Huye_2019","Rwanda","huye",-2.600819901,29.74160916,"Literature review sourced lat/lon","2019-09-01","2019-12-31","2019-10-31","Automated midpoint",0,0,NA,NA,NA,"2019","mdr1:86:N"
"who_1384","Institute of Tropical Medicine and International Health","other",NA,2023,"https://pubmed.ncbi.nlm.nih.gov/33350925/","who_1384_SouthernProvince_2019","Rwanda","Southern Province",-2.53213,29.57463,"lat/lon sourced from who meta file","2019-01-01","2019-12-31","2019-07-02","Automated midpoint",0,0,NA,NA,NA,"2019","mdr1:86:N"
"geoff_S0065Ndiaye","geoff_S0065Ndiaye","peer_reviewed","Ndiaye",2024,"https://malariajournal.biomedcentral.com/articles/10.1186/s12936-024-05024-8","geoff_S0065Ndiaye_Thies_2013","Senegal","thies",14.791,-16.9359,"Literature review sourced lat/lon","2013-01-01","2013-12-31","2013-07-02","Automated midpoint",0,50,0,0,7.11217364641976,"2013","mdr1:86:N"
"geoff_S0065Ndiaye","geoff_S0065Ndiaye","peer_reviewed","Ndiaye",2024,"https://malariajournal.biomedcentral.com/articles/10.1186/s12936-024-05024-8","geoff_S0065Ndiaye_Thies_2014","Senegal","thies",14.791,-16.9359,"Literature review sourced lat/lon","2014-01-01","2014-12-31","2014-07-02","Automated midpoint",0,53,0,0,6.72345463063011,"2014","mdr1:86:N"
"geoff_S0065Ndiaye","geoff_S0065Ndiaye","peer_reviewed","Ndiaye",2024,"https://malariajournal.biomedcentral.com/articles/10.1186/s12936-024-05024-8","geoff_S0065Ndiaye_Pikine_2000","Senegal","pikine",14.7589,-17.3938,"Literature review sourced lat/lon","2000-01-01","2000-12-31","2000-07-01","Automated midpoint",0,27,0,0,12.7702867615432,"2000","mdr1:86:N"
"geoff_S0065Ndiaye","geoff_S0065Ndiaye","peer_reviewed","Ndiaye",2024,"https://malariajournal.biomedcentral.com/articles/10.1186/s12936-024-05024-8","geoff_S0065Ndiaye_Pikine_2001","Senegal","pikine",14.7589,-17.3938,"Literature review sourced lat/lon","2001-01-01","2001-12-31","2001-07-02","Automated midpoint",0,49,0,0,7.25192636642774,"2001","mdr1:86:N"
"geoff_S0065Ndiaye","geoff_S0065Ndiaye","peer_reviewed","Ndiaye",2024,"https://malariajournal.biomedcentral.com/articles/10.1186/s12936-024-05024-8","geoff_S0065Ndiaye_Pikine_2002","Senegal","pikine",14.7589,-17.3938,"Literature review sourced lat/lon","2002-01-01","2002-12-31","2002-07-02","Automated midpoint",0,79,0,0,4.56212527586111,"2002","mdr1:86:N"
"geoff_S0065Ndiaye","geoff_S0065Ndiaye","peer_reviewed","Ndiaye",2024,"https://malariajournal.biomedcentral.com/articles/10.1186/s12936-024-05024-8","geoff_S0065Ndiaye_Pikine_2003","Senegal","pikine",14.7589,-17.3938,"Literature review sourced lat/lon","2003-01-01","2003-12-31","2003-07-02","Automated midpoint",0,62,0,0,5.7762634429291,"2003","mdr1:86:N"
"geoff_S0065Ndiaye","geoff_S0065Ndiaye","peer_reviewed","Ndiaye",2024,"https://malariajournal.biomedcentral.com/articles/10.1186/s12936-024-05024-8","geoff_S0065Ndiaye_Pikine_2004","Senegal","pikine",14.7589,-17.3938,"Literature review sourced lat/lon","2004-01-01","2004-12-31","2004-07-01","Automated midpoint",0,70,0,0,5.13337971510237,"2004","mdr1:86:N"
"geoff_S0065Ndiaye","geoff_S0065Ndiaye","peer_reviewed","Ndiaye",2024,"https://malariajournal.biomedcentral.com/articles/10.1186/s12936-024-05024-8","geoff_S0065Ndiaye_Pikine_2005","Senegal","pikine",14.7589,-17.3938,"Literature review sourced lat/lon","2005-01-01","2005-12-31","2005-07-02","Automated midpoint",0,77,0,0,4.67780681604041,"2005","mdr1:86:N"
"geoff_S0065Ndiaye","geoff_S0065Ndiaye","peer_reviewed","Ndiaye",2024,"https://malariajournal.biomedcentral.com/articles/10.1186/s12936-024-05024-8","geoff_S0065Ndiaye_Thies_2006","Senegal","thies",14.791,-16.9359,"Literature review sourced lat/lon","2006-01-01","2006-12-31","2006-07-02","Automated midpoint",0,80,0,0,4.50640350676923,"2006","mdr1:86:N"
"geoff_S0065Ndiaye","geoff_S0065Ndiaye","peer_reviewed","Ndiaye",2024,"https://malariajournal.biomedcentral.com/articles/10.1186/s12936-024-05024-8","geoff_S0065Ndiaye_Thies_2007","Senegal","thies",14.791,-16.9359,"Literature review sourced lat/lon","2007-01-01","2007-12-31","2007-07-02","Automated midpoint",0,73,0,0,4.92770608958593,"2007","mdr1:86:N"
"geoff_S0065Ndiaye","geoff_S0065Ndiaye","peer_reviewed","Ndiaye",2024,"https://malariajournal.biomedcentral.com/articles/10.1186/s12936-024-05024-8","geoff_S0065Ndiaye_Thies_2008","Senegal","thies",14.791,-16.9359,"Literature review sourced lat/lon","2008-01-01","2008-12-31","2008-07-01","Automated midpoint",0,94,0,0,3.84833509975288,"2008","mdr1:86:N"
"geoff_S0065Ndiaye","geoff_S0065Ndiaye","peer_reviewed","Ndiaye",2024,"https://malariajournal.biomedcentral.com/articles/10.1186/s12936-024-05024-8","geoff_S0065Ndiaye_Thies_2009","Senegal","thies",14.791,-16.9359,"Literature review sourced lat/lon","2009-01-01","2009-12-31","2009-07-02","Automated midpoint",0,78,0,0,4.61924203280487,"2009","mdr1:86:N"
"geoff_S0065Ndiaye","geoff_S0065Ndiaye","peer_reviewed","Ndiaye",2024,"https://malariajournal.biomedcentral.com/articles/10.1186/s12936-024-05024-8","geoff_S0065Ndiaye_Thies_2010","Senegal","thies",14.791,-16.9359,"Literature review sourced lat/lon","2010-01-01","2010-12-31","2010-07-02","Automated midpoint",0,93,0,0,3.88889985342759,"2010","mdr1:86:N"
"geoff_S0065Ndiaye","geoff_S0065Ndiaye","peer_reviewed","Ndiaye",2024,"https://malariajournal.biomedcentral.com/articles/10.1186/s12936-024-05024-8","geoff_S0065Ndiaye_Thies_2011","Senegal","thies",14.791,-16.9359,"Literature review sourced lat/lon","2011-01-01","2011-12-31","2011-07-02","Automated midpoint",0,130,0,0,2.79771784154517,"2011","mdr1:86:N"
"geoff_S0065Ndiaye","geoff_S0065Ndiaye","peer_reviewed","Ndiaye",2024,"https://malariajournal.biomedcentral.com/articles/10.1186/s12936-024-05024-8","geoff_S0065Ndiaye_Thies_2012","Senegal","thies",14.791,-16.9359,"Literature review sourced lat/lon","2012-01-01","2012-12-31","2012-07-01","Automated midpoint",0,120,0,0,3.02729725774201,"2012","mdr1:86:N"
"geoff_S0065Ndiaye","geoff_S0065Ndiaye","peer_reviewed","Ndiaye",2024,"https://malariajournal.biomedcentral.com/articles/10.1186/s12936-024-05024-8","geoff_S0065Ndiaye_Thies_2018","Senegal","thies",14.791,-16.9359,"Literature review sourced lat/lon","2018-01-01","2018-12-31","2018-07-02","Automated midpoint",0,61,0,0,5.86812239322926,"2018","mdr1:86:N"
"geoff_S0065Ndiaye","geoff_S0065Ndiaye","peer_reviewed","Ndiaye",2024,"https://malariajournal.biomedcentral.com/articles/10.1186/s12936-024-05024-8","geoff_S0065Ndiaye_Thies_2019","Senegal","thies",14.791,-16.9359,"Literature review sourced lat/lon","2019-01-01","2019-12-31","2019-07-02","Automated midpoint",0,71,0,0,5.06294079544037,"2019","mdr1:86:N"
"geoff_S0065Ndiaye","geoff_S0065Ndiaye","peer_reviewed","Ndiaye",2024,"https://malariajournal.biomedcentral.com/articles/10.1186/s12936-024-05024-8","geoff_S0065Ndiaye_Thies_2020","Senegal","thies",14.791,-16.9359,"Literature review sourced lat/lon","2020-01-01","2020-12-31","2020-07-01","Automated midpoint",0,49,0,0,7.25192636642774,"2020","mdr1:86:N"
"geoff_S0065Ndiaye","geoff_S0065Ndiaye","peer_reviewed","Ndiaye",2024,"https://malariajournal.biomedcentral.com/articles/10.1186/s12936-024-05024-8","geoff_S0065Ndiaye_Kaolack_2020","Senegal","kaolack",14.1652,-16.0758,"Literature review sourced lat/lon","2020-01-01","2020-12-31","2020-07-01","Automated midpoint",0,94,0,0,3.84833509975288,"2020","mdr1:86:N"
"geoff_S0065Ndiaye","geoff_S0065Ndiaye","peer_reviewed","Ndiaye",2024,"https://malariajournal.biomedcentral.com/articles/10.1186/s12936-024-05024-8","geoff_S0065Ndiaye_Diourbel_2018","Senegal","diourbel",14.6561,-16.2346,"Literature review sourced lat/lon","2018-01-01","2018-12-31","2018-07-02","Automated midpoint",0,172,0,0,2.1218622625126,"2018","mdr1:86:N"
"geoff_S0065Ndiaye","geoff_S0065Ndiaye","peer_reviewed","Ndiaye",2024,"https://malariajournal.biomedcentral.com/articles/10.1186/s12936-024-05024-8","geoff_S0065Ndiaye_Diourbel_2019","Senegal","diourbel",14.6561,-16.2346,"Literature review sourced lat/lon","2019-01-01","2019-12-31","2019-07-02","Automated midpoint",0,84,0,0,4.29649196295651,"2019","mdr1:86:N"
"geoff_S0065Ndiaye","geoff_S0065Ndiaye","peer_reviewed","Ndiaye",2024,"https://malariajournal.biomedcentral.com/articles/10.1186/s12936-024-05024-8","geoff_S0065Ndiaye_Diourbel_2020","Senegal","diourbel",14.6561,-16.2346,"Literature review sourced lat/lon","2020-01-01","2020-12-31","2020-07-01","Automated midpoint",0,98,0,0,3.69419870351929,"2020","mdr1:86:N"
"geoff_S0065Ndiaye","geoff_S0065Ndiaye","peer_reviewed","Ndiaye",2024,"https://malariajournal.biomedcentral.com/articles/10.1186/s12936-024-05024-8","geoff_S0065Ndiaye_Kolda_2019","Senegal","kolda",12.9002,-14.9425,"Literature review sourced lat/lon","2019-01-01","2019-12-31","2019-07-02","Automated midpoint",0,191,0,0,1.91281941758463,"2019","mdr1:86:N"
"geoff_S0065Ndiaye","geoff_S0065Ndiaye","peer_reviewed","Ndiaye",2024,"https://malariajournal.biomedcentral.com/articles/10.1186/s12936-024-05024-8","geoff_S0065Ndiaye_Kolda_2020","Senegal","kolda",12.9002,-14.9425,"Literature review sourced lat/lon","2020-01-01","2020-12-31","2020-07-01","Automated midpoint",0,97,0,0,3.73156369087361,"2020","mdr1:86:N"
"geoff_S0065Ndiaye","geoff_S0065Ndiaye","peer_reviewed","Ndiaye",2024,"https://malariajournal.biomedcentral.com/articles/10.1186/s12936-024-05024-8","geoff_S0065Ndiaye_Kedougou_2015","Senegal","kedougou",12.5605,-12.1747,"Literature review sourced lat/lon","2015-01-01","2015-12-31","2015-07-02","Automated midpoint",0,81,0,0,4.45202624563218,"2015","mdr1:86:N"
"geoff_S0065Ndiaye","geoff_S0065Ndiaye","peer_reviewed","Ndiaye",2024,"https://malariajournal.biomedcentral.com/articles/10.1186/s12936-024-05024-8","geoff_S0065Ndiaye_Kedougou_2016","Senegal","kedougou",12.5605,-12.1747,"Literature review sourced lat/lon","2016-01-01","2016-12-31","2016-07-01","Automated midpoint",0,99,0,0,3.65757449834789,"2016","mdr1:86:N"
"geoff_S0065Ndiaye","geoff_S0065Ndiaye","peer_reviewed","Ndiaye",2024,"https://malariajournal.biomedcentral.com/articles/10.1186/s12936-024-05024-8","geoff_S0065Ndiaye_Kedougou_2017","Senegal","kedougou",12.5605,-12.1747,"Literature review sourced lat/lon","2017-01-01","2017-12-31","2017-07-02","Automated midpoint",0,123,0,0,2.95456255270724,"2017","mdr1:86:N"
"geoff_S0065Ndiaye","geoff_S0065Ndiaye","peer_reviewed","Ndiaye",2024,"https://malariajournal.biomedcentral.com/articles/10.1186/s12936-024-05024-8","geoff_S0065Ndiaye_Kedougou_2018","Senegal","kedougou",12.5605,-12.1747,"Literature review sourced lat/lon","2018-01-01","2018-12-31","2018-07-02","Automated midpoint",0,235,0,0,1.55747979683157,"2018","mdr1:86:N"
"geoff_S0065Ndiaye","geoff_S0065Ndiaye","peer_reviewed","Ndiaye",2024,"https://malariajournal.biomedcentral.com/articles/10.1186/s12936-024-05024-8","geoff_S0065Ndiaye_Kedougou_2019","Senegal","kedougou",12.5605,-12.1747,"Literature review sourced lat/lon","2019-01-01","2019-12-31","2019-07-02","Automated midpoint",0,100,0,0,3.62166926451765,"2019","mdr1:86:N"
"geoff_S0065Ndiaye","geoff_S0065Ndiaye","peer_reviewed","Ndiaye",2024,"https://malariajournal.biomedcentral.com/articles/10.1186/s12936-024-05024-8","geoff_S0065Ndiaye_Kedougou_2020","Senegal","kedougou",12.5605,-12.1747,"Literature review sourced lat/lon","2020-01-01","2020-12-31","2020-07-01","Automated midpoint",0,96,0,0,3.76969216235875,"2020","mdr1:86:N"
"pf7k_1135_PF_SN_CONWAY","1135-PF-SN-CONWAY","peer_reviewed","MalariaGen",2023,"https://pubmed.ncbi.nlm.nih.gov/36864926/","pf7k_1135_PF_SN_CONWAY_MalariaGen_Dakar_2013","Senegal","Dakar",14.754650571506,-17.2654175478361,"lat/lon sourced from pf7k meta file","2013-01-01","2013-12-31","2013-07-02","Automated midpoint",60,64,93.75,84.7636526577303,98.2709972618945,"2013","mdr1:86:N"
"pf7k_1135_PF_SN_CONWAY","1135-PF-SN-CONWAY","peer_reviewed","MalariaGen",2023,"https://pubmed.ncbi.nlm.nih.gov/36864926/","pf7k_1135_PF_SN_CONWAY_MalariaGen_Dakar_2014","Senegal","Dakar",14.754650571506,-17.2654175478361,"lat/lon sourced from pf7k meta file","2014-01-01","2014-12-31","2014-07-02","Automated midpoint",24,27,88.8888888888889,70.8413075726448,97.6472545619146,"2014","mdr1:86:N"
"geoff_S0071MohammedSdn2018","geoff_S0071MohammedSdn2018","peer_reviewed","Mohammed",2018,"10.12688/f1000research.13273.1","geoff_S0071MohammedSdn2018_Khartoum_2015","Sudan","khartoum",15.6084835919081,32.6004092533934,"Literature review sourced lat/lon","2015-12-01","2016-01-31","2015-12-31","Automated midpoint",0,0,NA,NA,NA,"2015","mdr1:86:N"
"pf7k_1247_PF_SD_HAMID_SM","1247-PF-SD-HAMID-SM","peer_reviewed","MalariaGen",2023,"https://pubmed.ncbi.nlm.nih.gov/36864926/","pf7k_1247_PF_SD_HAMID_SM_MalariaGen_Khartoum_2016","Sudan","Khartoum",15.8436791599915,32.8017965486535,"lat/lon sourced from pf7k meta file","2016-01-01","2016-12-31","2016-07-01","Automated midpoint",2,5,40,5.27449505263169,85.3367200365327,"2016","mdr1:86:N"
"pf7k_1247_PF_SD_HAMID_SM","1247-PF-SD-HAMID-SM","peer_reviewed","MalariaGen",2023,"https://pubmed.ncbi.nlm.nih.gov/36864926/","pf7k_1247_PF_SD_HAMID_SM_MalariaGen_Khartoum_2017","Sudan","Khartoum",15.8436791599915,32.8017965486535,"lat/lon sourced from pf7k meta file","2017-01-01","2017-12-31","2017-07-02","Automated midpoint",29,59,49.1525423728814,35.8912727800532,62.5017450265024,"2017","mdr1:86:N"
"geoff_S0165TorrentinoMadamet2014","geoff_S0165TorrentinoMadamet2014","peer_reviewed","Torrentino-Madamet",2014,"https://pubmed.ncbi.nlm.nih.gov/25471113/","geoff_S0165TorrentinoMadamet2014_Dakar_2012","Senegal","dakar",14.66240405,-17.43475529,"Literature review sourced lat/lon","2012-10-01","2013-01-31","2012-12-01","Automated midpoint",0,0,NA,NA,NA,"2012","mdr1:86:N"
"geoff_S0039Yobi2020Plosone","geoff_S0039Yobi2020Plosone","peer_reviewed","Yobi",2020,"https://www.ncbi.nlm.nih.gov/pmc/articles/PMC7446852/","geoff_S0039Yobi2020Plosone_Fungurume_2017","Democratic Republic of the Congo","fungurume",-10.6197,26.319,"Literature review sourced lat/lon","2017-09-01","2017-12-31","2017-10-31","Automated midpoint",0,0,NA,NA,NA,"2017","mdr1:86:N"
"geoff_S0039Yobi2020Plosone","geoff_S0039Yobi2020Plosone","peer_reviewed","Yobi",2020,"https://www.ncbi.nlm.nih.gov/pmc/articles/PMC7446852/","geoff_S0039Yobi2020Plosone_Lubumbashi_2017","Democratic Republic of the Congo","lubumbashi",-11.6876,27.5026,"Literature review sourced lat/lon","2017-09-01","2017-12-31","2017-10-31","Automated midpoint",0,0,NA,NA,NA,"2017","mdr1:86:N"
"geoff_S0039Yobi2020Plosone","geoff_S0039Yobi2020Plosone","peer_reviewed","Yobi",2020,"https://www.ncbi.nlm.nih.gov/pmc/articles/PMC7446852/","geoff_S0039Yobi2020Plosone_Kalima_2017","Democratic Republic of the Congo","kalima",-2.5664,26.6185,"Literature review sourced lat/lon","2017-09-01","2017-12-31","2017-10-31","Automated midpoint",0,0,NA,NA,NA,"2017","mdr1:86:N"
"geoff_S0039Yobi2020Plosone","geoff_S0039Yobi2020Plosone","peer_reviewed","Yobi",2020,"https://www.ncbi.nlm.nih.gov/pmc/articles/PMC7446852/","geoff_S0039Yobi2020Plosone_Karawa_2017","Democratic Republic of the Congo","karawa",3.3217,20.2963,"Literature review sourced lat/lon","2017-09-01","2017-12-31","2017-10-31","Automated midpoint",0,0,NA,NA,NA,"2017","mdr1:86:N"
"geoff_S0039Yobi2020Plosone","geoff_S0039Yobi2020Plosone","peer_reviewed","Yobi",2020,"https://www.ncbi.nlm.nih.gov/pmc/articles/PMC7446852/","geoff_S0039Yobi2020Plosone_Kamina_2017","Democratic Republic of the Congo","kamina",-8.7369,24.9873,"Literature review sourced lat/lon","2017-09-01","2017-12-31","2017-10-31","Automated midpoint",0,0,NA,NA,NA,"2017","mdr1:86:N"
"geoff_S0039Yobi2020Plosone","geoff_S0039Yobi2020Plosone","peer_reviewed","Yobi",2020,"https://www.ncbi.nlm.nih.gov/pmc/articles/PMC7446852/","geoff_S0039Yobi2020Plosone_Bolenge_2017","Democratic Republic of the Congo","bolenge",0.0022,18.2229,"Literature review sourced lat/lon","2017-09-01","2017-12-31","2017-10-31","Automated midpoint",0,0,NA,NA,NA,"2017","mdr1:86:N"
"geoff_S0039Yobi2020Plosone","geoff_S0039Yobi2020Plosone","peer_reviewed","Yobi",2020,"https://www.ncbi.nlm.nih.gov/pmc/articles/PMC7446852/","geoff_S0039Yobi2020Plosone_Vanga_2017","Democratic Republic of the Congo","vanga",-4.4154,18.4341,"Literature review sourced lat/lon","2017-09-01","2017-12-31","2017-10-31","Automated midpoint",0,0,NA,NA,NA,"2017","mdr1:86:N"
"geoff_S0039Yobi2020Plosone","geoff_S0039Yobi2020Plosone","peer_reviewed","Yobi",2020,"https://www.ncbi.nlm.nih.gov/pmc/articles/PMC7446852/","geoff_S0039Yobi2020Plosone_Kinshasa_2017","Democratic Republic of the Congo","kinshasa",-4.3033,15.3105,"Literature review sourced lat/lon","2017-01-01","2017-03-31","2017-02-14","Automated midpoint",0,0,NA,NA,NA,"2017","mdr1:86:N"
"geoff_S0039Yobi2020Plosone","geoff_S0039Yobi2020Plosone","peer_reviewed","Yobi",2020,"https://www.ncbi.nlm.nih.gov/pmc/articles/PMC7446852/","geoff_S0039Yobi2020Plosone_Katana_2017","Democratic Republic of the Congo","katana",-2.22109,28.83077,"Literature review sourced lat/lon","2017-09-01","2017-12-31","2017-10-31","Automated midpoint",0,0,NA,NA,NA,"2017","mdr1:86:N"
"geoff_S0039Yobi2020Plosone","geoff_S0039Yobi2020Plosone","peer_reviewed","Yobi",2020,"https://www.ncbi.nlm.nih.gov/pmc/articles/PMC7446852/","geoff_S0039Yobi2020Plosone_Kisangani_2017","Democratic Republic of the Congo","kisangani",0.5185,25.2008,"Literature review sourced lat/lon","2017-09-01","2017-12-31","2017-10-31","Automated midpoint",0,0,NA,NA,NA,"2017","mdr1:86:N"
"geoff_S0120Yobi2020","geoff_S0120Yobi2020","peer_reviewed","Yobi",2020,"https://pubmed.ncbi.nlm.nih.gov/32197607/","geoff_S0120Yobi2020_Fungurume_2017","Congo - Kinshasa","fungurume",-10.62943987,26.30882447,"Literature review sourced lat/lon","2017-09-01","2017-12-31","2017-10-31","Automated midpoint",0,0,NA,NA,NA,"2017","mdr1:86:N"
"geoff_S0120Yobi2020","geoff_S0120Yobi2020","peer_reviewed","Yobi",2020,"https://pubmed.ncbi.nlm.nih.gov/32197607/","geoff_S0120Yobi2020_Lubumbashi_2017","Congo - Kinshasa","lubumbashi",-11.7321456,27.43558387,"Literature review sourced lat/lon","2017-09-01","2017-12-31","2017-10-31","Automated midpoint",0,0,NA,NA,NA,"2017","mdr1:86:N"
"geoff_S0120Yobi2020","geoff_S0120Yobi2020","peer_reviewed","Yobi",2020,"https://pubmed.ncbi.nlm.nih.gov/32197607/","geoff_S0120Yobi2020_Kalima_2017","Congo - Kinshasa","kalima",-2.565332523,26.6183717,"Literature review sourced lat/lon","2017-09-01","2017-12-31","2017-10-31","Automated midpoint",0,0,NA,NA,NA,"2017","mdr1:86:N"
"geoff_S0120Yobi2020","geoff_S0120Yobi2020","peer_reviewed","Yobi",2020,"https://pubmed.ncbi.nlm.nih.gov/32197607/","geoff_S0120Yobi2020_Karawa_2017","Congo - Kinshasa","karawa",3.322739977,20.29640578,"Literature review sourced lat/lon","2017-09-01","2017-12-31","2017-10-31","Automated midpoint",0,0,NA,NA,NA,"2017","mdr1:86:N"
"geoff_S0120Yobi2020","geoff_S0120Yobi2020","peer_reviewed","Yobi",2020,"https://pubmed.ncbi.nlm.nih.gov/32197607/","geoff_S0120Yobi2020_Kamina_2017","Congo - Kinshasa","kamina",-8.729128571,24.99191181,"Literature review sourced lat/lon","2017-09-01","2017-12-31","2017-10-31","Automated midpoint",0,0,NA,NA,NA,"2017","mdr1:86:N"
"geoff_S0120Yobi2020","geoff_S0120Yobi2020","peer_reviewed","Yobi",2020,"https://pubmed.ncbi.nlm.nih.gov/32197607/","geoff_S0120Yobi2020_Bolenge_2017","Congo - Kinshasa","bolenge",0.0002577414285,18.21622494,"Literature review sourced lat/lon","2017-09-01","2017-12-31","2017-10-31","Automated midpoint",0,0,NA,NA,NA,"2017","mdr1:86:N"
"geoff_S0120Yobi2020","geoff_S0120Yobi2020","peer_reviewed","Yobi",2020,"https://pubmed.ncbi.nlm.nih.gov/32197607/","geoff_S0120Yobi2020_Vanga_2017","Congo - Kinshasa","vanga",-4.424464493,18.42031207,"Literature review sourced lat/lon","2017-09-01","2017-12-31","2017-10-31","Automated midpoint",0,0,NA,NA,NA,"2017","mdr1:86:N"
"geoff_S0120Yobi2020","geoff_S0120Yobi2020","peer_reviewed","Yobi",2020,"https://pubmed.ncbi.nlm.nih.gov/32197607/","geoff_S0120Yobi2020_Kinshasa_2017","Congo - Kinshasa","kinshasa",-4.308334805,15.30626195,"Literature review sourced lat/lon","2017-01-01","2017-03-31","2017-02-14","Automated midpoint",0,0,NA,NA,NA,"2017","mdr1:86:N"
"geoff_S0120Yobi2020","geoff_S0120Yobi2020","peer_reviewed","Yobi",2020,"https://pubmed.ncbi.nlm.nih.gov/32197607/","geoff_S0120Yobi2020_Katana_2017","Congo - Kinshasa","katana",-2.224013605,28.83147478,"Literature review sourced lat/lon","2017-09-01","2017-12-31","2017-10-31","Automated midpoint",0,0,NA,NA,NA,"2017","mdr1:86:N"
"geoff_S0120Yobi2020","geoff_S0120Yobi2020","peer_reviewed","Yobi",2020,"https://pubmed.ncbi.nlm.nih.gov/32197607/","geoff_S0120Yobi2020_Kisangani_2017","Congo - Kinshasa","kisangani",-4.331779015,15.27436162,"Literature review sourced lat/lon","2017-09-01","2017-12-31","2017-10-31","Automated midpoint",0,0,NA,NA,NA,"2017","mdr1:86:N"
"who_358","Department of Epidemiology of Parasitic Diseases, University of Sciences, Techniques and Technologies of Bamako","other",NA,2023,"WHO MTM","who_358_Koulikoro_2010","Mali","Koulikoro",12.74537,-8.0738,"lat/lon sourced from who meta file","2010-01-01","2010-12-31","2010-07-02","Automated midpoint",0,0,NA,NA,NA,"2010","mdr1:86:N"
"geoff_S0003GideyEth2022","geoff_S0003GideyEth2022","preprint","Gidey",2024,"https://doi.org/10.1101/2024.09.11.24313421","geoff_S0003GideyEth2022_Abole_2022","Ethiopia","abole",8.1879,34.3989,"Literature review sourced lat/lon","2022-01-01","2022-12-31","2022-07-02","Automated midpoint",0,134,0,0,2.71534828798001,"2022","mdr1:86:N"
"geoff_S0003GideyEth2022","geoff_S0003GideyEth2022","preprint","Gidey",2024,"https://doi.org/10.1101/2024.09.11.24313421","geoff_S0003GideyEth2022_Andassa_2022","Ethiopia","andassa",11.50241,37.48655,"Literature review sourced lat/lon","2022-01-01","2022-12-31","2022-07-02","Automated midpoint",0,118,0,0,3.07780960741445,"2022","mdr1:86:N"
"geoff_S0003GideyEth2022","geoff_S0003GideyEth2022","preprint","Gidey",2024,"https://doi.org/10.1101/2024.09.11.24313421","geoff_S0003GideyEth2022_Asendabo_2022","Ethiopia","asendabo",7.75904,37.22329,"Literature review sourced lat/lon","2022-01-01","2022-12-31","2022-07-02","Automated midpoint",0,29,0,0,11.9444869069503,"2022","mdr1:86:N"
"geoff_S0003GideyEth2022","geoff_S0003GideyEth2022","preprint","Gidey",2024,"https://doi.org/10.1101/2024.09.11.24313421","geoff_S0003GideyEth2022_Batu_2022","Ethiopia","batu",7.93833,38.71916,"Literature review sourced lat/lon","2022-01-01","2022-12-31","2022-07-02","Automated midpoint",0,30,0,0,11.5703308222028,"2022","mdr1:86:N"
"geoff_S0003GideyEth2022","geoff_S0003GideyEth2022","preprint","Gidey",2024,"https://doi.org/10.1101/2024.09.11.24313421","geoff_S0003GideyEth2022_Dilla_2022","Ethiopia","dilla",6.4007,38.3111,"Literature review sourced lat/lon","2022-01-01","2022-12-31","2022-07-02","Automated midpoint",0,5,0,0,52.1823750104981,"2022","mdr1:86:N"
"geoff_S0003GideyEth2022","geoff_S0003GideyEth2022","preprint","Gidey",2024,"https://doi.org/10.1101/2024.09.11.24313421","geoff_S0003GideyEth2022_Erer_2022","Ethiopia","erer",9.5614,41.3833,"Literature review sourced lat/lon","2022-01-01","2022-12-31","2022-07-02","Automated midpoint",0,39,0,0,9.02511009603343,"2022","mdr1:86:N"
"geoff_S0003GideyEth2022","geoff_S0003GideyEth2022","preprint","Gidey",2024,"https://doi.org/10.1101/2024.09.11.24313421","geoff_S0003GideyEth2022_Jiga_2022","Ethiopia","jiga",10.67261,37.70038,"Literature review sourced lat/lon","2022-01-01","2022-12-31","2022-07-02","Automated midpoint",0,103,0,0,3.51806175743402,"2022","mdr1:86:N"
"geoff_S0003GideyEth2022","geoff_S0003GideyEth2022","preprint","Gidey",2024,"https://doi.org/10.1101/2024.09.11.24313421","geoff_S0003GideyEth2022_Lante_2019","Ethiopia","lante",6.13325,37.63912,"Literature review sourced lat/lon","2019-01-01","2019-12-31","2019-07-02","Automated midpoint",0,90,0,0,4.01589196157747,"2019","mdr1:86:N"
"geoff_S0003GideyEth2022","geoff_S0003GideyEth2022","preprint","Gidey",2024,"https://doi.org/10.1101/2024.09.11.24313421","geoff_S0003GideyEth2022_Metehara_2019","Ethiopia","metehara",8.83826,39.92292,"Literature review sourced lat/lon","2019-01-01","2019-12-31","2019-07-02","Automated midpoint",0,191,0,0,1.91281941758463,"2019","mdr1:86:N"
"geoff_S0003GideyEth2022","geoff_S0003GideyEth2022","preprint","Gidey",2024,"https://doi.org/10.1101/2024.09.11.24313421","geoff_S0003GideyEth2022_Secha_2022","Ethiopia","secha",6.03333,37.555,"Literature review sourced lat/lon","2022-01-01","2022-12-31","2022-07-02","Automated midpoint",0,41,0,0,8.60438362940284,"2022","mdr1:86:N"
"geoff_S0003GideyEth2022","geoff_S0003GideyEth2022","preprint","Gidey",2024,"https://doi.org/10.1101/2024.09.11.24313421","geoff_S0003GideyEth2022_Shile_2019","Ethiopia","shile",6.3,37.11667,"Literature review sourced lat/lon","2019-01-01","2019-12-31","2019-07-02","Automated midpoint",0,88,0,0,4.10526290580781,"2019","mdr1:86:N"
"geoff_S0003GideyEth2022","geoff_S0003GideyEth2022","preprint","Gidey",2024,"https://doi.org/10.1101/2024.09.11.24313421","geoff_S0003GideyEth2022_Woreta_2022","Ethiopia","woreta",11.92777,37.75625,"Literature review sourced lat/lon","2022-01-01","2022-12-31","2022-07-02","Automated midpoint",0,51,0,0,6.97770307495387,"2022","mdr1:86:N"
"wwarn_wwarn_69520_Spread","wwarn_69520_Spread","peer_reviewed","Spread",1000,"https://pubmed.ncbi.nlm.nih.gov/25075834","wwarn_wwarn_69520_Spread_WWARN_Kwara_2011","Nigeria","Kwara",8.47414970397949,4.50099992752075,"lat/lon reported in WWARN","2011-01-01","2011-12-31","2011-07-02","Automated midpoint",0,0,NA,NA,NA,"2011","mdr1:86:N"
"wwarn_wwarn_69520_Spread","wwarn_69520_Spread","peer_reviewed","Spread",1000,"https://pubmed.ncbi.nlm.nih.gov/25075834","wwarn_wwarn_69520_Spread_WWARN_Kwara_2012","Nigeria","Kwara",8.47414970397949,4.50099992752075,"lat/lon reported in WWARN","2012-01-01","2012-12-31","2012-07-01","Automated midpoint",0,0,NA,NA,NA,"2012","mdr1:86:N"
"wwarn_wwarn_69520_Spread","wwarn_69520_Spread","peer_reviewed","Spread",1000,"https://pubmed.ncbi.nlm.nih.gov/25075834","wwarn_wwarn_69520_Spread_WWARN_Kinshasa_2013","Congo - Kinshasa","Kinshasa",-4.322447,15.307045,"lat/lon reported in WWARN","2013-01-01","2013-12-31","2013-07-02","Automated midpoint",0,0,NA,NA,NA,"2013","mdr1:86:N"
"wwarn_wwarn_69520_Spread","wwarn_69520_Spread","peer_reviewed","Spread",1000,"https://pubmed.ncbi.nlm.nih.gov/25075834","wwarn_wwarn_69520_Spread_WWARN_Kilifi_2011","Kenya","Kilifi",-3.78344011306763,39.780200958252,"lat/lon reported in WWARN","2011-01-01","2011-12-31","2011-07-02","Automated midpoint",0,0,NA,NA,NA,"2011","mdr1:86:N"
"wwarn_wwarn_53306_Polymorphisms","wwarn_53306_Polymorphisms","peer_reviewed","Polymorphisms",1000,"https://pubmed.ncbi.nlm.nih.gov/25144768","wwarn_wwarn_53306_Polymorphisms_WWARN_Northern_2012","Uganda","Northern",1.98434996604919,32.5339088439941,"lat/lon reported in WWARN","2012-01-01","2012-12-31","2012-07-01","Automated midpoint",0,0,NA,NA,NA,"2012","mdr1:86:N"
"wwarn_wwarn_79585_Absence","wwarn_79585_Absence","peer_reviewed","Absence",1000,"https://pubmed.ncbi.nlm.nih.gov/25180240","wwarn_wwarn_79585_Absence_WWARN_Kwilu_2007","Congo - Kinshasa","Kwilu",-3.31068992614746,17.3814392089844,"lat/lon reported in WWARN","2007-01-01","2007-12-31","2007-07-02","Automated midpoint",0,0,NA,NA,NA,"2007","mdr1:86:N"
"wwarn_wwarn_79585_Absence","wwarn_79585_Absence","peer_reviewed","Absence",1000,"https://pubmed.ncbi.nlm.nih.gov/25180240","wwarn_wwarn_79585_Absence_WWARN_KongoCentral_2007","Congo - Kinshasa","Kongo Central",-5.49045643091722,13.2808208465576,"lat/lon reported in WWARN","2007-01-01","2007-12-31","2007-07-02","Automated midpoint",0,0,NA,NA,NA,"2007","mdr1:86:N"
"wwarn_wwarn_79585_Absence","wwarn_79585_Absence","peer_reviewed","Absence",1000,"https://pubmed.ncbi.nlm.nih.gov/25180240","wwarn_wwarn_79585_Absence_WWARN_UpperRiver_2012","Gambia","Upper River",13.3100004196167,-14.2137002944946,"lat/lon reported in WWARN","2012-01-01","2012-12-31","2012-07-01","Automated midpoint",0,0,NA,NA,NA,"2012","mdr1:86:N"
"wwarn_wwarn_79585_Absence","wwarn_79585_Absence","peer_reviewed","Absence",1000,"https://pubmed.ncbi.nlm.nih.gov/25180240","wwarn_wwarn_79585_Absence_WWARN_Pwani_2006","Tanzania","Pwani",-6.40000009536743,38.6666984558105,"lat/lon reported in WWARN","2006-01-01","2006-12-31","2006-07-02","Automated midpoint",0,0,NA,NA,NA,"2006","mdr1:86:N"
"wwarn_wwarn_79585_Absence","wwarn_79585_Absence","peer_reviewed","Absence",1000,"https://pubmed.ncbi.nlm.nih.gov/25180240","wwarn_wwarn_79585_Absence_WWARN_Kinshasa_2006","Congo - Kinshasa","Kinshasa",-4.33811037182267,15.2944087982178,"lat/lon reported in WWARN","2006-01-01","2006-12-31","2006-07-02","Automated midpoint",0,0,NA,NA,NA,"2006","mdr1:86:N"
"wwarn_wwarn_79585_Absence","wwarn_79585_Absence","peer_reviewed","Absence",1000,"https://pubmed.ncbi.nlm.nih.gov/25180240","wwarn_wwarn_79585_Absence_WWARN_Kinshasa_2007","Congo - Kinshasa","Kinshasa",-4.33811037182267,15.2944087982178,"lat/lon reported in WWARN","2007-01-01","2007-12-31","2007-07-02","Automated midpoint",0,0,NA,NA,NA,"2007","mdr1:86:N"
"wwarn_wwarn_79585_Absence","wwarn_79585_Absence","peer_reviewed","Absence",1000,"https://pubmed.ncbi.nlm.nih.gov/25180240","wwarn_wwarn_79585_Absence_WWARN_Kisumu_2004","Kenya","Kisumu",-0.0985099971294403,34.767261505127,"lat/lon reported in WWARN","2004-01-01","2004-12-31","2004-07-01","Automated midpoint",0,0,NA,NA,NA,"2004","mdr1:86:N"
"wwarn_wwarn_79585_Absence","wwarn_79585_Absence","peer_reviewed","Absence",1000,"https://pubmed.ncbi.nlm.nih.gov/25180240","wwarn_wwarn_79585_Absence_WWARN_Kisumu_2007","Kenya","Kisumu",-0.0985099971294403,34.767261505127,"lat/lon reported in WWARN","2007-01-01","2007-12-31","2007-07-02","Automated midpoint",0,0,NA,NA,NA,"2007","mdr1:86:N"
"wwarn_wwarn_79585_Absence","wwarn_79585_Absence","peer_reviewed","Absence",1000,"https://pubmed.ncbi.nlm.nih.gov/25180240","wwarn_wwarn_79585_Absence_WWARN_Kayes_2010","Mali","Kayes",13.0364799499512,-9.47502994537354,"lat/lon reported in WWARN","2010-01-01","2010-12-31","2010-07-02","Automated midpoint",0,0,NA,NA,NA,"2010","mdr1:86:N"
"wwarn_wwarn_79585_Absence","wwarn_79585_Absence","peer_reviewed","Absence",1000,"https://pubmed.ncbi.nlm.nih.gov/25180240","wwarn_wwarn_79585_Absence_WWARN_SouthernRegion_2010","Malawi","Southern Region",-14.9652500152588,35.6816291809082,"lat/lon reported in WWARN","2010-01-01","2010-12-31","2010-07-02","Automated midpoint",0,0,NA,NA,NA,"2010","mdr1:86:N"
"wwarn_wwarn_79585_Absence","wwarn_79585_Absence","peer_reviewed","Absence",1000,"https://pubmed.ncbi.nlm.nih.gov/25180240","wwarn_wwarn_79585_Absence_WWARN_UpperEast_2012","Ghana","Upper East",10.8927602767944,-1.0905499458313,"lat/lon reported in WWARN","2012-01-01","2012-12-31","2012-07-01","Automated midpoint",0,0,NA,NA,NA,"2012","mdr1:86:N"
"wwarn_wwarn_79585_Absence","wwarn_79585_Absence","peer_reviewed","Absence",1000,"https://pubmed.ncbi.nlm.nih.gov/25180240","wwarn_wwarn_79585_Absence_WWARN_Segou_2010","Mali","Segou",13.3332996368408,-4.83333015441895,"lat/lon reported in WWARN","2010-01-01","2010-12-31","2010-07-02","Automated midpoint",0,0,NA,NA,NA,"2010","mdr1:86:N"
"wwarn_wwarn_79585_Absence","wwarn_79585_Absence","peer_reviewed","Absence",1000,"https://pubmed.ncbi.nlm.nih.gov/25180240","wwarn_wwarn_79585_Absence_WWARN_Siaya_2012","Kenya","Siaya",0.0658999979496002,34.2876586914062,"lat/lon reported in WWARN","2012-01-01","2012-12-31","2012-07-01","Automated midpoint",0,0,NA,NA,NA,"2012","mdr1:86:N"
"wwarn_wwarn_79585_Absence","wwarn_79585_Absence","peer_reviewed","Absence",1000,"https://pubmed.ncbi.nlm.nih.gov/25180240","wwarn_wwarn_79585_Absence_WWARN_Eastern_2012","Uganda","Eastern",0.694260001182556,34.1812591552734,"lat/lon reported in WWARN","2012-01-01","2012-12-31","2012-07-01","Automated midpoint",0,0,NA,NA,NA,"2012","mdr1:86:N"
"wwarn_wwarn_79585_Absence","wwarn_79585_Absence","peer_reviewed","Absence",1000,"https://pubmed.ncbi.nlm.nih.gov/25180240","wwarn_wwarn_79585_Absence_WWARN_PlateauCentral_2011","Burkina Faso","Plateau Central",12.6330299377441,-1.06972002983093,"lat/lon reported in WWARN","2011-01-01","2011-12-31","2011-07-02","Automated midpoint",0,0,NA,NA,NA,"2011","mdr1:86:N"
"wwarn_wwarn_23902_K13propeller","wwarn_23902_K13-propeller","peer_reviewed","K13-propeller",1000,"https://pubmed.ncbi.nlm.nih.gov/25367300","wwarn_wwarn_23902_K13propeller_WWARN_Central_2007","Ghana","Central",5.11894989013672,-1.26092994213104,"lat/lon reported in WWARN","2007-01-01","2007-12-31","2007-07-02","Automated midpoint",0,0,NA,NA,NA,"2007","mdr1:86:N"
"wwarn_wwarn_23902_K13propeller","wwarn_23902_K13-propeller","peer_reviewed","K13-propeller",1000,"https://pubmed.ncbi.nlm.nih.gov/25367300","wwarn_wwarn_23902_K13propeller_WWARN_Koulikoro_2007","Mali","Koulikoro",13.1333999633789,-8.34490013122559,"lat/lon reported in WWARN","2007-01-01","2007-12-31","2007-07-02","Automated midpoint",0,0,NA,NA,NA,"2007","mdr1:86:N"
"wwarn_wwarn_23902_K13propeller","wwarn_23902_K13-propeller","peer_reviewed","K13-propeller",1000,"https://pubmed.ncbi.nlm.nih.gov/25367300","wwarn_wwarn_23902_K13propeller_WWARN_Kinshasa_2007","Congo - Kinshasa","Kinshasa",-4.31620034908673,15.2882289886475,"lat/lon reported in WWARN","2007-01-01","2007-12-31","2007-07-02","Automated midpoint",0,0,NA,NA,NA,"2007","mdr1:86:N"
"wwarn_wwarn_23902_K13propeller","wwarn_23902_K13-propeller","peer_reviewed","K13-propeller",1000,"https://pubmed.ncbi.nlm.nih.gov/25367300","wwarn_wwarn_23902_K13propeller_WWARN_Abidjan_2007","Côte d’Ivoire","Abidjan",5.29822015762329,-3.94944000244141,"lat/lon reported in WWARN","2007-01-01","2007-12-31","2007-07-02","Automated midpoint",0,0,NA,NA,NA,"2007","mdr1:86:N"
"wwarn_wwarn_23902_K13propeller","wwarn_23902_K13-propeller","peer_reviewed","K13-propeller",1000,"https://pubmed.ncbi.nlm.nih.gov/25367300","wwarn_wwarn_23902_K13propeller_WWARN_Estuaire_2007","Gabon","Estuaire",0.393460005521774,9.4573802947998,"lat/lon reported in WWARN","2007-01-01","2007-12-31","2007-07-02","Automated midpoint",0,0,NA,NA,NA,"2007","mdr1:86:N"
"wwarn_wwarn_23902_K13propeller","wwarn_23902_K13-propeller","peer_reviewed","K13-propeller",1000,"https://pubmed.ncbi.nlm.nih.gov/25367300","wwarn_wwarn_23902_K13propeller_WWARN_Tanga_2007","Tanzania","Tanga",-5.08660984039307,39.0973014831543,"lat/lon reported in WWARN","2007-01-01","2007-12-31","2007-07-02","Automated midpoint",0,0,NA,NA,NA,"2007","mdr1:86:N"
"geoff_S0049Plucinski","geoff_S0049Plucinski","peer_reviewed","Plucinski",2015,"https://pubmed.ncbi.nlm.nih.gov/25367912/","geoff_S0049Plucinski_Zaire_2013","Angola","zaire",-6.26546125610666,14.2530006972803,"Literature review sourced lat/lon","2013-02-01","2013-05-31","2013-04-01","Automated midpoint",17,19,89.4736842105263,66.8623335543234,98.6987835628223,"2013","mdr1:86:N"
"geoff_S0049Plucinski","geoff_S0049Plucinski","peer_reviewed","Plucinski",2015,"https://pubmed.ncbi.nlm.nih.gov/25367912/","geoff_S0049Plucinski_Uige_2013","Angola","uige",-7.60893691434273,15.0608984182213,"Literature review sourced lat/lon","2013-02-01","2013-05-31","2013-04-01","Automated midpoint",5,6,83.3333333333333,35.8765421002325,99.5789255485511,"2013","mdr1:86:N"
"wwarn_wwarn_46243_Novel","wwarn_46243_Novel","peer_reviewed","Novel",1000,"https://pubmed.ncbi.nlm.nih.gov/25695257","wwarn_wwarn_46243_Novel_WWARN_HomaBay_2012","Kenya","Homa Bay",-0.528274717411009,34.0899963378906,"lat/lon reported in WWARN","2012-01-01","2012-12-31","2012-07-01","Automated midpoint",0,0,NA,NA,NA,"2012","mdr1:86:N"
"wwarn_wwarn_46243_Novel","wwarn_46243_Novel","peer_reviewed","Novel",1000,"https://pubmed.ncbi.nlm.nih.gov/25695257","wwarn_wwarn_46243_Novel_WWARN_LakeVictoria_2012","Kenya","Lake Victoria",-0.479012298916189,34.0903358459473,"lat/lon reported in WWARN","2012-01-01","2012-12-31","2012-07-01","Automated midpoint",0,0,NA,NA,NA,"2012","mdr1:86:N"
"wwarn_wwarn_46243_Novel","wwarn_46243_Novel","peer_reviewed","Novel",1000,"https://pubmed.ncbi.nlm.nih.gov/25695257","wwarn_wwarn_46243_Novel_WWARN_HomaBay_2013","Kenya","Homa Bay",-0.609999027975022,34.1017913818359,"lat/lon reported in WWARN","2013-01-01","2013-12-31","2013-07-02","Automated midpoint",0,0,NA,NA,NA,"2013","mdr1:86:N"
"who_7","Departamento de Pediatria, Hospital Prof. Doutor Fernando Fonseca EPE","peer_reviewed",NA,2023,"http://www.ncbi.nlm.nih.gov/pubmed/25789669","who_7_NA_2010","Angola",NA,-8.95674,14.59116,"lat/lon sourced from who meta file","2010-01-01","2010-12-31","2010-07-02","Automated midpoint",0,0,NA,NA,NA,"2010","mdr1:86:N"
"wwarn_wwarn_92445_Ouattara","wwarn_92445_Ouattara","peer_reviewed","Ouattara",1000,"https://pubmed.ncbi.nlm.nih.gov/25918205","wwarn_wwarn_92445_Ouattara_WWARN_Sikasso_2005","Mali","Sikasso",10.7833003997803,-6.91666984558105,"lat/lon reported in WWARN","2005-01-01","2005-12-31","2005-07-02","Automated midpoint",0,0,NA,NA,NA,"2005","mdr1:86:N"
"wwarn_wwarn_92445_Ouattara","wwarn_92445_Ouattara","peer_reviewed","Ouattara",1000,"https://pubmed.ncbi.nlm.nih.gov/25918205","wwarn_wwarn_92445_Ouattara_WWARN_Sikasso_2011","Mali","Sikasso",10.7833003997803,-6.91666984558105,"lat/lon reported in WWARN","2011-01-01","2011-12-31","2011-07-02","Automated midpoint",0,0,NA,NA,NA,"2011","mdr1:86:N"
"wwarn_wwarn_92445_Ouattara","wwarn_92445_Ouattara","peer_reviewed","Ouattara",1000,"https://pubmed.ncbi.nlm.nih.gov/25918205","wwarn_wwarn_92445_Ouattara_WWARN_Mopti_2002","Mali","Mopti",14.3500003814697,-3.61110997200012,"lat/lon reported in WWARN","2002-01-01","2002-12-31","2002-07-02","Automated midpoint",0,0,NA,NA,NA,"2002","mdr1:86:N"
"wwarn_wwarn_19391_TorrentinoMadamet","wwarn_19391_Torrentino-Madamet","peer_reviewed","Torrentino-Madamet",1000,"https://pubmed.ncbi.nlm.nih.gov/26416865","wwarn_wwarn_19391_TorrentinoMadamet_WWARN_Anjouan_2014","Comoros","Anjouan",-12.2138137817383,44.4370613098145,"lat/lon reported in WWARN","2014-01-01","2014-12-31","2014-07-02","Automated midpoint",0,0,NA,NA,NA,"2014","mdr1:86:N"
"wwarn_wwarn_19391_TorrentinoMadamet","wwarn_19391_Torrentino-Madamet","peer_reviewed","Torrentino-Madamet",1000,"https://pubmed.ncbi.nlm.nih.gov/26416865","wwarn_wwarn_19391_TorrentinoMadamet_WWARN_Ngazidja_2014","Comoros","Ngazidja",-11.6510000228882,43.0928993225098,"lat/lon reported in WWARN","2014-01-01","2014-12-31","2014-07-02","Automated midpoint",0,0,NA,NA,NA,"2014","mdr1:86:N"
"wwarn_wwarn_19391_TorrentinoMadamet","wwarn_19391_Torrentino-Madamet","peer_reviewed","Torrentino-Madamet",1000,"https://pubmed.ncbi.nlm.nih.gov/26416865","wwarn_wwarn_19391_TorrentinoMadamet_WWARN_Moheli_2014","Comoros","Moheli",-12.3377380371094,43.7334098815918,"lat/lon reported in WWARN","2014-01-01","2014-12-31","2014-07-02","Automated midpoint",0,0,NA,NA,NA,"2014","mdr1:86:N"
"geoff_S0027BayihAjtmh","geoff_S0027BayihAjtmh","peer_reviewed","Bayih",2016,"https://pubmed.ncbi.nlm.nih.gov/26483118/","geoff_S0027BayihAjtmh_AddisZemen_2013","Ethiopia","addis_zemen",12.1245730633806,37.7788098930049,"Literature review sourced lat/lon","2013-10-01","2014-04-30","2014-01-14","Automated midpoint",0,0,NA,NA,NA,"2014","mdr1:86:N"
"geoff_S0027BayihAjtmh","geoff_S0027BayihAjtmh","peer_reviewed","Bayih",2016,"https://pubmed.ncbi.nlm.nih.gov/26483118/","geoff_S0027BayihAjtmh_Aykel_2013","Ethiopia","aykel",12.5558058001356,37.0691478993617,"Literature review sourced lat/lon","2013-10-01","2014-04-30","2014-01-14","Automated midpoint",0,0,NA,NA,NA,"2014","mdr1:86:N"
"geoff_S0027BayihAjtmh","geoff_S0027BayihAjtmh","peer_reviewed","Bayih",2016,"https://pubmed.ncbi.nlm.nih.gov/26483118/","geoff_S0027BayihAjtmh_Maksegnet_2013","Ethiopia","maksegnet",12.3912724084632,37.5614034147133,"Literature review sourced lat/lon","2013-10-01","2014-04-30","2014-01-14","Automated midpoint",0,0,NA,NA,NA,"2014","mdr1:86:N"
"geoff_S0027BayihAjtmh","geoff_S0027BayihAjtmh","peer_reviewed","Bayih",2016,"https://pubmed.ncbi.nlm.nih.gov/26483118/","geoff_S0027BayihAjtmh_NegadeBahir_2013","Ethiopia","negade_bahir",12.5938988994421,36.7737356012372,"Literature review sourced lat/lon","2013-10-01","2014-04-30","2014-01-14","Automated midpoint",0,0,NA,NA,NA,"2014","mdr1:86:N"
"geoff_S0027BayihAjtmh","geoff_S0027BayihAjtmh","peer_reviewed","Bayih",2016,"https://pubmed.ncbi.nlm.nih.gov/26483118/","geoff_S0027BayihAjtmh_Sanja_2013","Ethiopia","sanja",12.9939904777955,37.2936662383105,"Literature review sourced lat/lon","2013-10-01","2014-04-30","2014-01-14","Automated midpoint",0,0,NA,NA,NA,"2014","mdr1:86:N"
"wwarn_wwarn_62252_Boussaroque","wwarn_62252_Boussaroque","peer_reviewed","Boussaroque",1000,"https://pubmed.ncbi.nlm.nih.gov/26503652","wwarn_wwarn_62252_Boussaroque_WWARN_Dakar_2014","Senegal","Dakar",14.7644996643066,-17.3659992218018,"lat/lon reported in WWARN","2014-01-01","2014-12-31","2014-07-02","Automated midpoint",0,0,NA,NA,NA,"2014","mdr1:86:N"
"wwarn_wwarn_23972_Huang","wwarn_23972_Huang","peer_reviewed","Huang",1000,"https://pubmed.ncbi.nlm.nih.gov/26667053","wwarn_wwarn_23972_Huang_WWARN_Ngazidja_2007","Comoros","Ngazidja",-11.3887996673584,43.293399810791,"lat/lon reported in WWARN","2007-01-01","2007-12-31","2007-07-02","Automated midpoint",0,0,NA,NA,NA,"2007","mdr1:86:N"
"wwarn_wwarn_23972_Huang","wwarn_23972_Huang","peer_reviewed","Huang",1000,"https://pubmed.ncbi.nlm.nih.gov/26667053","wwarn_wwarn_23972_Huang_WWARN_Ngazidja_2014","Comoros","Ngazidja",-11.3887996673584,43.293399810791,"lat/lon reported in WWARN","2014-01-01","2014-12-31","2014-07-02","Automated midpoint",0,0,NA,NA,NA,"2014","mdr1:86:N"
"who_8","Unidade de Parasitologia Médica, Instituto de Higiene e Medicina Tropical, Universidade Nova de Lisboa","peer_reviewed",NA,2023,"http://www.ncbi.nlm.nih.gov/pubmed/26670642","who_8_LuandaProvince_2011","Angola","Luanda Province",-8.83999,13.28944,"lat/lon sourced from who meta file","2011-01-01","2011-12-31","2011-07-02","Automated midpoint",0,0,NA,NA,NA,"2011","mdr1:86:N"
"wwarn_wwarn_21853_Li","wwarn_21853_Li","peer_reviewed","Li",1000,"https://pubmed.ncbi.nlm.nih.gov/27054064","wwarn_wwarn_21853_Li_WWARN_BiokoNorte_2014","Equatorial Guinea","Bioko Norte",3.61982989311218,8.74812030792236,"lat/lon reported in WWARN","2014-01-01","2014-12-31","2014-07-02","Automated midpoint",0,0,NA,NA,NA,"2014","mdr1:86:N"
"wwarn_wwarn_22398_Ocan","wwarn_22398_Ocan","peer_reviewed","Ocan",1000,"https://pubmed.ncbi.nlm.nih.gov/27543172","wwarn_wwarn_22398_Ocan_WWARN_Northern_2013","Uganda","Northern",2.77377700805664,32.2941398620605,"lat/lon reported in WWARN","2013-01-01","2013-12-31","2013-07-02","Automated midpoint",0,0,NA,NA,NA,"2013","mdr1:86:N"
"geoff_S0032Tacoli","geoff_S0032Tacoli","peer_reviewed","Tacoli",2016,"https://www.ajtmh.org/view/journals/tpmd/95/5/article-p1090.xml","geoff_S0032Tacoli_Huye_2010","Rwanda","huye",-2.600819901,29.74160916,"Literature review sourced lat/lon","2010-01-01","2010-12-31","2010-07-02","Automated midpoint",0,0,NA,NA,NA,"2010","mdr1:86:N"
"geoff_S0032Tacoli","geoff_S0032Tacoli","peer_reviewed","Tacoli",2016,"https://www.ajtmh.org/view/journals/tpmd/95/5/article-p1090.xml","geoff_S0032Tacoli_Huye_2014","Rwanda","huye",-2.600819901,29.74160916,"Literature review sourced lat/lon","2014-01-01","2014-12-31","2014-07-02","Automated midpoint",0,0,NA,NA,NA,"2014","mdr1:86:N"
"geoff_S0032Tacoli","geoff_S0032Tacoli","peer_reviewed","Tacoli",2016,"https://www.ajtmh.org/view/journals/tpmd/95/5/article-p1090.xml","geoff_S0032Tacoli_Huye_2015","Rwanda","huye",-2.600819901,29.74160916,"Literature review sourced lat/lon","2015-01-01","2015-12-31","2015-07-02","Automated midpoint",0,0,NA,NA,NA,"2015","mdr1:86:N"
"wwarn_wwarn_18464_Guerra","wwarn_18464_Guerra","peer_reviewed","Guerra",1000,"https://pubmed.ncbi.nlm.nih.gov/27795385","wwarn_wwarn_18464_Guerra_WWARN_CentroSur_2005","Equatorial Guinea","Centro Sur",1.7457879781723,10.1739044189453,"lat/lon reported in WWARN","2005-01-01","2005-12-31","2005-07-02","Automated midpoint",0,0,NA,NA,NA,"2005","mdr1:86:N"
"wwarn_wwarn_18464_Guerra","wwarn_18464_Guerra","peer_reviewed","Guerra",1000,"https://pubmed.ncbi.nlm.nih.gov/27795385","wwarn_wwarn_18464_Guerra_WWARN_CentroSur_2013","Equatorial Guinea","Centro Sur",1.7457879781723,10.1739044189453,"lat/lon reported in WWARN","2013-01-01","2013-12-31","2013-07-02","Automated midpoint",0,0,NA,NA,NA,"2013","mdr1:86:N"
"wwarn_wwarn_18464_Guerra","wwarn_18464_Guerra","peer_reviewed","Guerra",1000,"https://pubmed.ncbi.nlm.nih.gov/27795385","wwarn_wwarn_18464_Guerra_WWARN_Litoral_2005","Equatorial Guinea","Litoral",2.04404997825623,9.7836799621582,"lat/lon reported in WWARN","2005-01-01","2005-12-31","2005-07-02","Automated midpoint",0,0,NA,NA,NA,"2005","mdr1:86:N"
"wwarn_wwarn_18464_Guerra","wwarn_18464_Guerra","peer_reviewed","Guerra",1000,"https://pubmed.ncbi.nlm.nih.gov/27795385","wwarn_wwarn_18464_Guerra_WWARN_Litoral_2013","Equatorial Guinea","Litoral",2.04404997825623,9.7836799621582,"lat/lon reported in WWARN","2013-01-01","2013-12-31","2013-07-02","Automated midpoint",0,0,NA,NA,NA,"2013","mdr1:86:N"
"geoff_S0101Plucinski2017","geoff_S0101Plucinski2017","peer_reviewed","Meier-Scherling",2017,"https://pubmed.ncbi.nlm.nih.gov/28153004/","geoff_S0101Plucinski2017_Benguela_2015","Angola","benguela",-12.5712013813012,13.4025861725638,"Literature review sourced lat/lon","2015-01-01","2015-06-30","2015-04-01","Automated midpoint",13,14,92.8571428571429,66.1315510068179,99.8193219340875,"2015","mdr1:86:N"
"geoff_S0101Plucinski2017","geoff_S0101Plucinski2017","peer_reviewed","Meier-Scherling",2017,"https://pubmed.ncbi.nlm.nih.gov/28153004/","geoff_S0101Plucinski2017_Zaire_2015","Angola","zaire",-6.11584102620696,14.2474111175031,"Literature review sourced lat/lon","2015-01-01","2015-06-30","2015-04-01","Automated midpoint",22,26,84.6153846153846,65.1321214464639,95.6436523461076,"2015","mdr1:86:N"
"wwarn_wwarn_19345_KoukouikilaKoussounda","wwarn_19345_Koukouikila-Koussounda","peer_reviewed","Koukouikila-Koussounda",1000,"https://pubmed.ncbi.nlm.nih.gov/28420403","wwarn_wwarn_19345_KoukouikilaKoussounda_WWARN_Brazzaville_2010","Congo - Brazzaville","Brazzaville",-4.26667022705078,15.2833003997803,"lat/lon reported in WWARN","2010-01-01","2010-12-31","2010-07-02","Automated midpoint",0,0,NA,NA,NA,"2010","mdr1:86:N"
"wwarn_wwarn_19345_KoukouikilaKoussounda","wwarn_19345_Koukouikila-Koussounda","peer_reviewed","Koukouikila-Koussounda",1000,"https://pubmed.ncbi.nlm.nih.gov/28420403","wwarn_wwarn_19345_KoukouikilaKoussounda_WWARN_Brazzaville_2015","Congo - Brazzaville","Brazzaville",-4.26667022705078,15.2833003997803,"lat/lon reported in WWARN","2015-01-01","2015-12-31","2015-07-02","Automated midpoint",0,0,NA,NA,NA,"2015","mdr1:86:N"
"wwarn_wwarn_71797_Nguetse","wwarn_71797_Nguetse","peer_reviewed","Nguetse",1000,"https://pubmed.ncbi.nlm.nih.gov/28535801","wwarn_wwarn_71797_Nguetse_WWARN_Kisumu_2012","Kenya","Kisumu",-0.0917019993066788,34.7680015563965,"lat/lon reported in WWARN","2012-01-01","2012-12-31","2012-07-01","Automated midpoint",0,0,NA,NA,NA,"2012","mdr1:86:N"
"wwarn_wwarn_71797_Nguetse","wwarn_71797_Nguetse","peer_reviewed","Nguetse",1000,"https://pubmed.ncbi.nlm.nih.gov/28535801","wwarn_wwarn_71797_Nguetse_WWARN_Ashanti_2012","Ghana","Ashanti",6.68711996078491,-1.62197005748749,"lat/lon reported in WWARN","2012-01-01","2012-12-31","2012-07-01","Automated midpoint",0,0,NA,NA,NA,"2012","mdr1:86:N"
"wwarn_wwarn_71797_Nguetse","wwarn_71797_Nguetse","peer_reviewed","Nguetse",1000,"https://pubmed.ncbi.nlm.nih.gov/28535801","wwarn_wwarn_71797_Nguetse_WWARN_Moyen_Ogooue_2012","Gabon","Moyen-Ogooue",-0.701546013355255,10.2404003143311,"lat/lon reported in WWARN","2012-01-01","2012-12-31","2012-07-01","Automated midpoint",0,0,NA,NA,NA,"2012","mdr1:86:N"
"geoff_S0040Mvumbi2017Plosone","geoff_S0040Mvumbi2017Plosone","peer_reviewed","Mvumbi",2017,"https://www.ncbi.nlm.nih.gov/pmc/articles/PMC5464640/","geoff_S0040Mvumbi2017Plosone_Bolenge_2014","Democratic Republic of the Congo","bolenge",0.0022,18.2229,"Literature review sourced lat/lon","2014-03-01","2014-11-30","2014-07-16","Automated midpoint",0,0,NA,NA,NA,"2014","mdr1:86:N"
"geoff_S0040Mvumbi2017Plosone","geoff_S0040Mvumbi2017Plosone","peer_reviewed","Mvumbi",2017,"https://www.ncbi.nlm.nih.gov/pmc/articles/PMC5464640/","geoff_S0040Mvumbi2017Plosone_Butembo_2014","Democratic Republic of the Congo","butembo",0.114,29.3018,"Literature review sourced lat/lon","2014-03-01","2014-11-30","2014-07-16","Automated midpoint",0,0,NA,NA,NA,"2014","mdr1:86:N"
"geoff_S0040Mvumbi2017Plosone","geoff_S0040Mvumbi2017Plosone","peer_reviewed","Mvumbi",2017,"https://www.ncbi.nlm.nih.gov/pmc/articles/PMC5464640/","geoff_S0040Mvumbi2017Plosone_Kapolowe_2014","Democratic Republic of the Congo","kapolowe",-10.9424,26.9522,"Literature review sourced lat/lon","2014-03-01","2014-11-30","2014-07-16","Automated midpoint",0,0,NA,NA,NA,"2014","mdr1:86:N"
"geoff_S0040Mvumbi2017Plosone","geoff_S0040Mvumbi2017Plosone","peer_reviewed","Mvumbi",2017,"https://www.ncbi.nlm.nih.gov/pmc/articles/PMC5464640/","geoff_S0040Mvumbi2017Plosone_Luzizila_2014","Democratic Republic of the Congo","luzizila",-4.322447,15.307045,"Literature review sourced lat/lon","2014-03-01","2014-11-30","2014-07-16","Automated midpoint",0,0,NA,NA,NA,"2014","mdr1:86:N"
"geoff_S0040Mvumbi2017Plosone","geoff_S0040Mvumbi2017Plosone","peer_reviewed","Mvumbi",2017,"https://www.ncbi.nlm.nih.gov/pmc/articles/PMC5464640/","geoff_S0040Mvumbi2017Plosone_Mweka_2014","Democratic Republic of the Congo","mweka",-4.8531,21.5588,"Literature review sourced lat/lon","2014-03-01","2014-11-30","2014-07-16","Automated midpoint",0,0,NA,NA,NA,"2014","mdr1:86:N"
"geoff_S0040Mvumbi2017Plosone","geoff_S0040Mvumbi2017Plosone","peer_reviewed","Mvumbi",2017,"https://www.ncbi.nlm.nih.gov/pmc/articles/PMC5464640/","geoff_S0040Mvumbi2017Plosone_Punia_2014","Democratic Republic of the Congo","punia",-1.7777,26.6082,"Literature review sourced lat/lon","2014-03-01","2014-11-30","2014-07-16","Automated midpoint",0,0,NA,NA,NA,"2014","mdr1:86:N"
"who_887","Department of Biological Sciences, University of North Carolina","peer_reviewed",NA,2023,"https://www.ncbi.nlm.nih.gov/pubmed/28746333","who_887_OromiaandSouthernNationsNationalitiesandPeoplesRegions_2014","Ethiopia","Oromia and Southern Nations, Nationalities, and Peoples' Regions",7.75758,37.30246,"lat/lon sourced from who meta file","2014-01-01","2014-12-31","2014-07-02","Automated midpoint",0,0,NA,NA,NA,"2014","mdr1:86:N"
"geoff_S0052Ljolje","geoff_S0052Ljolje","peer_reviewed","Ljolje",2018,"https://pubmed.ncbi.nlm.nih.gov/29458380/","geoff_S0052Ljolje_Benguela_2015","Angola","benguela",-12.5730075429155,13.4028808081531,"Literature review sourced lat/lon","2015-01-01","2015-12-31","2015-07-02","Automated midpoint",182,208,87.5,82.2231495087521,91.6695995732006,"2015","mdr1:86:N"
"geoff_S0052Ljolje","geoff_S0052Ljolje","peer_reviewed","Ljolje",2018,"https://pubmed.ncbi.nlm.nih.gov/29458380/","geoff_S0052Ljolje_LundaSul_2015","Angola","lunda_sul",-10.27506139,20.7082933,"Literature review sourced lat/lon","2015-01-01","2015-12-31","2015-07-02","Automated midpoint",102,109,93.5779816513761,87.2151776273647,97.3792549309859,"2015","mdr1:86:N"
"geoff_S0052Ljolje","geoff_S0052Ljolje","peer_reviewed","Ljolje",2018,"https://pubmed.ncbi.nlm.nih.gov/29458380/","geoff_S0052Ljolje_Zaire_2015","Angola","zaire",-6.265461256,14.2530007,"Literature review sourced lat/lon","2015-01-01","2015-12-31","2015-07-02","Automated midpoint",181,232,78.0172413793103,72.1309089042427,83.1725515103329,"2015","mdr1:86:N"
"who_689","National Malaria Control Programme","peer_reviewed",NA,2023,"https://www.ncbi.nlm.nih.gov/pubmed/29932931","who_689_EasternProvince_2016","Sierra Leone","Eastern Province",7.87583,-11.19083,"lat/lon sourced from who meta file","2016-01-01","2016-12-31","2016-07-01","Automated midpoint",0,0,NA,NA,NA,"2016","mdr1:86:N"
"who_884","Unité d'Evolution, Epidémiologie et Résistances Parasitaires (UNEEREP), Centre International de Recherche Médicales de Franceville","peer_reviewed",NA,2023,"https://www.ncbi.nlm.nih.gov/pubmed/30121345","who_884_NA_2010","Congo",NA,-4.26778,15.29194,"lat/lon sourced from who meta file","2010-01-01","2010-12-31","2010-07-02","Automated midpoint",0,0,NA,NA,NA,"2010","mdr1:86:N"
"geoff_S0128VoumboMatoumona2018","geoff_S0128VoumboMatoumona2018","peer_reviewed","Voumbo-Matoumona",2018,"10.2147/IDR.S160164","geoff_S0128VoumboMatoumona2018_Franceville_2011","Gabon","franceville",-1.619537675,13.60287655,"Literature review sourced lat/lon","2011-01-01","2011-12-31","2011-07-02","Automated midpoint",0,0,NA,NA,NA,"2011","mdr1:86:N"
"geoff_S0128VoumboMatoumona2018","geoff_S0128VoumboMatoumona2018","peer_reviewed","Voumbo-Matoumona",2018,"10.2147/IDR.S160164","geoff_S0128VoumboMatoumona2018_Franceville_2012","Gabon","franceville",-1.619537675,13.60287655,"Literature review sourced lat/lon","2012-01-01","2012-12-31","2012-07-01","Automated midpoint",0,0,NA,NA,NA,"2012","mdr1:86:N"
"geoff_S0128VoumboMatoumona2018","geoff_S0128VoumboMatoumona2018","peer_reviewed","Voumbo-Matoumona",2018,"10.2147/IDR.S160164","geoff_S0128VoumboMatoumona2018_Franceville_2013","Gabon","franceville",-1.619537675,13.60287655,"Literature review sourced lat/lon","2013-01-01","2013-12-31","2013-07-02","Automated midpoint",0,0,NA,NA,NA,"2013","mdr1:86:N"
"geoff_S0128VoumboMatoumona2018","geoff_S0128VoumboMatoumona2018","peer_reviewed","Voumbo-Matoumona",2018,"10.2147/IDR.S160164","geoff_S0128VoumboMatoumona2018_Franceville_2014","Gabon","franceville",-1.619537675,13.60287655,"Literature review sourced lat/lon","2014-01-01","2014-12-31","2014-07-02","Automated midpoint",0,0,NA,NA,NA,"2014","mdr1:86:N"
"geoff_S0128VoumboMatoumona2018","geoff_S0128VoumboMatoumona2018","peer_reviewed","Voumbo-Matoumona",2018,"10.2147/IDR.S160164","geoff_S0128VoumboMatoumona2018_Koulamoutou_2013","Gabon","koulamoutou",-1.141558337,12.46656384,"Literature review sourced lat/lon","2013-01-01","2013-12-31","2013-07-02","Automated midpoint",0,0,NA,NA,NA,"2013","mdr1:86:N"
"geoff_S0128VoumboMatoumona2018","geoff_S0128VoumboMatoumona2018","peer_reviewed","Voumbo-Matoumona",2018,"10.2147/IDR.S160164","geoff_S0128VoumboMatoumona2018_Koulamoutou_2014","Gabon","koulamoutou",-1.141558337,12.46656384,"Literature review sourced lat/lon","2014-01-01","2014-12-31","2014-07-02","Automated midpoint",0,0,NA,NA,NA,"2014","mdr1:86:N"
"geoff_S0128VoumboMatoumona2018","geoff_S0128VoumboMatoumona2018","peer_reviewed","Voumbo-Matoumona",2018,"10.2147/IDR.S160164","geoff_S0128VoumboMatoumona2018_Lastourville_2013","Gabon","lastourville",-0.8178097961,12.72500006,"Literature review sourced lat/lon","2013-01-01","2013-12-31","2013-07-02","Automated midpoint",0,0,NA,NA,NA,"2013","mdr1:86:N"
"geoff_S0128VoumboMatoumona2018","geoff_S0128VoumboMatoumona2018","peer_reviewed","Voumbo-Matoumona",2018,"10.2147/IDR.S160164","geoff_S0128VoumboMatoumona2018_Lastourville_2014","Gabon","lastourville",-0.8178097961,12.72500006,"Literature review sourced lat/lon","2014-01-01","2014-12-31","2014-07-02","Automated midpoint",0,0,NA,NA,NA,"2014","mdr1:86:N"
"geoff_S0029Warsame2019","geoff_S0029Warsame2019","peer_reviewed","Warsame",2019,"https://malariajournal.biomedcentral.com/articles/10.1186/s12936-019-2864-1","geoff_S0029Warsame2019_Bosaso_2016","Somalia","bosaso",11.2792904587952,49.1915150881342,"Literature review sourced lat/lon","2016-01-01","2017-12-31","2016-12-31","Automated midpoint",0,0,NA,NA,NA,"2016","mdr1:86:N"
"geoff_S0029Warsame2019","geoff_S0029Warsame2019","peer_reviewed","Warsame",2019,"https://malariajournal.biomedcentral.com/articles/10.1186/s12936-019-2864-1","geoff_S0029Warsame2019_Jowhar_2016","Somalia","jowhar",2.79818495336566,45.5252379656175,"Literature review sourced lat/lon","2016-01-01","2017-12-31","2016-12-31","Automated midpoint",0,0,NA,NA,NA,"2016","mdr1:86:N"
"geoff_S0069Matrevi2019","geoff_S0069Matrevi2019","peer_reviewed","Matrevi",2019,"https://www.ncbi.nlm.nih.gov/pmc/articles/PMC6811449/","geoff_S0069Matrevi2019_Savannah_2007","Ghana","savannah",10.1330333333,-1.20376666667,"Literature review sourced lat/lon","2007-01-01","2008-12-31","2008-01-01","Automated midpoint",0,0,NA,NA,NA,"2008","mdr1:86:N"
"geoff_S0069Matrevi2019","geoff_S0069Matrevi2019","peer_reviewed","Matrevi",2019,"https://www.ncbi.nlm.nih.gov/pmc/articles/PMC6811449/","geoff_S0069Matrevi2019_Forest_2007","Ghana","forest",6.52668,-1.15896,"Literature review sourced lat/lon","2007-01-01","2008-12-31","2008-01-01","Automated midpoint",0,0,NA,NA,NA,"2008","mdr1:86:N"
"geoff_S0069Matrevi2019","geoff_S0069Matrevi2019","peer_reviewed","Matrevi",2019,"https://www.ncbi.nlm.nih.gov/pmc/articles/PMC6811449/","geoff_S0069Matrevi2019_CoastalSavannah_2007","Ghana","coastal_savannah",5.3676,-0.73325,"Literature review sourced lat/lon","2007-01-01","2008-12-31","2008-01-01","Automated midpoint",0,0,NA,NA,NA,"2008","mdr1:86:N"
"geoff_S0069Matrevi2019","geoff_S0069Matrevi2019","peer_reviewed","Matrevi",2019,"https://www.ncbi.nlm.nih.gov/pmc/articles/PMC6811449/","geoff_S0069Matrevi2019_CoastalSavannah_2010","Ghana","coastal_savannah",5.3676,-0.73325,"Literature review sourced lat/lon","2010-01-01","2010-12-31","2010-07-02","Automated midpoint",0,0,NA,NA,NA,"2010","mdr1:86:N"
"geoff_S0069Matrevi2019","geoff_S0069Matrevi2019","peer_reviewed","Matrevi",2019,"https://www.ncbi.nlm.nih.gov/pmc/articles/PMC6811449/","geoff_S0069Matrevi2019_CoastalSavannah_2012","Ghana","coastal_savannah",5.3676,-0.73325,"Literature review sourced lat/lon","2012-01-01","2012-12-31","2012-07-01","Automated midpoint",0,0,NA,NA,NA,"2012","mdr1:86:N"
"geoff_S0069Matrevi2019","geoff_S0069Matrevi2019","peer_reviewed","Matrevi",2019,"https://www.ncbi.nlm.nih.gov/pmc/articles/PMC6811449/","geoff_S0069Matrevi2019_CoastalSavannah_2015","Ghana","coastal_savannah",5.3676,-0.73325,"Literature review sourced lat/lon","2015-01-01","2016-12-31","2016-01-01","Automated midpoint",0,0,NA,NA,NA,"2016","mdr1:86:N"
"geoff_S0069Matrevi2019","geoff_S0069Matrevi2019","peer_reviewed","Matrevi",2019,"https://www.ncbi.nlm.nih.gov/pmc/articles/PMC6811449/","geoff_S0069Matrevi2019_Forest_2010","Ghana","forest",6.52668,-1.15896,"Literature review sourced lat/lon","2010-01-01","2010-12-31","2010-07-02","Automated midpoint",0,0,NA,NA,NA,"2010","mdr1:86:N"
"geoff_S0069Matrevi2019","geoff_S0069Matrevi2019","peer_reviewed","Matrevi",2019,"https://www.ncbi.nlm.nih.gov/pmc/articles/PMC6811449/","geoff_S0069Matrevi2019_Forest_2013","Ghana","forest",6.52668,-1.15896,"Literature review sourced lat/lon","2013-01-01","2014-12-31","2013-12-31","Automated midpoint",0,0,NA,NA,NA,"2013","mdr1:86:N"
"geoff_S0069Matrevi2019","geoff_S0069Matrevi2019","peer_reviewed","Matrevi",2019,"https://www.ncbi.nlm.nih.gov/pmc/articles/PMC6811449/","geoff_S0069Matrevi2019_Forest_2015","Ghana","forest",6.52668,-1.15896,"Literature review sourced lat/lon","2015-01-01","2016-12-31","2016-01-01","Automated midpoint",0,0,NA,NA,NA,"2016","mdr1:86:N"
"geoff_S0069Matrevi2019","geoff_S0069Matrevi2019","peer_reviewed","Matrevi",2019,"https://www.ncbi.nlm.nih.gov/pmc/articles/PMC6811449/","geoff_S0069Matrevi2019_Savannah_2010","Ghana","savannah",10.1330333333,-1.20376666667,"Literature review sourced lat/lon","2010-01-01","2010-12-31","2010-07-02","Automated midpoint",0,0,NA,NA,NA,"2010","mdr1:86:N"
"geoff_S0069Matrevi2019","geoff_S0069Matrevi2019","peer_reviewed","Matrevi",2019,"https://www.ncbi.nlm.nih.gov/pmc/articles/PMC6811449/","geoff_S0069Matrevi2019_Savannah_2013","Ghana","savannah",10.1330333333,-1.20376666667,"Literature review sourced lat/lon","2013-01-01","2014-12-31","2013-12-31","Automated midpoint",0,0,NA,NA,NA,"2013","mdr1:86:N"
"geoff_S0069Matrevi2019","geoff_S0069Matrevi2019","peer_reviewed","Matrevi",2019,"https://www.ncbi.nlm.nih.gov/pmc/articles/PMC6811449/","geoff_S0069Matrevi2019_Savannah_2015","Ghana","savannah",10.1330333333,-1.20376666667,"Literature review sourced lat/lon","2015-01-01","2016-12-31","2016-01-01","Automated midpoint",0,0,NA,NA,NA,"2016","mdr1:86:N"
"who_940","Department of Biological Sciences, University of North Carolina","peer_reviewed",NA,2023,"https://www.ncbi.nlm.nih.gov/pubmed/31516103","who_940_Tigray_2010","Ethiopia","Tigray",14.11791,38.47393,"lat/lon sourced from who meta file","2010-01-01","2010-12-31","2010-07-02","Automated midpoint",0,0,NA,NA,NA,"2010","mdr1:86:N"
"wwarn_wwarn_42330_Musyoka","wwarn_42330_Musyoka","peer_reviewed","Musyoka",1000,"https://pubmed.ncbi.nlm.nih.gov/31756512","wwarn_wwarn_42330_Musyoka_WWARN_Kisumu_2015","Kenya","Kisumu",-0.187925264239311,34.9179000854492,"lat/lon reported in WWARN","2015-01-01","2015-12-31","2015-07-02","Automated midpoint",0,0,NA,NA,NA,"2015","mdr1:86:N"
"wwarn_wwarn_32826_Mohamed","wwarn_32826_Mohamed","peer_reviewed","Mohamed",1000,"https://pubmed.ncbi.nlm.nih.gov/32070355","wwarn_wwarn_32826_Mohamed_WWARN_BlueNile_2015","Sudan","Blue Nile",11.7666673660278,34.3499984741211,"lat/lon reported in WWARN","2015-01-01","2015-12-31","2015-07-02","Automated midpoint",0,0,NA,NA,NA,"2015","mdr1:86:N"
"geoff_S0046Bwire","geoff_S0046Bwire","peer_reviewed","Bwire",2020,"https://doi.org/10.1038%2Fs41598-020-60549-7","geoff_S0046Bwire_KibitiHealthCenter_2019","Tanzania","kibiti_health_center",-7.727470148,38.93394474,"Literature review sourced lat/lon","2019-04-01","2019-08-31","2019-06-16","Automated midpoint",0,436,0,0,0.842504142309919,"2019","mdr1:86:N"
"wwarn_wwarn_22128_LEpiscopia","wwarn_22128_L'Episcopia","peer_reviewed","L'Episcopia",1000,"https://pubmed.ncbi.nlm.nih.gov/32171330","wwarn_wwarn_22128_LEpiscopia_WWARN_Debub_2014","Eritrea","Debub",15,39,"lat/lon reported in WWARN","2014-01-01","2014-12-31","2014-07-02","Automated midpoint",0,0,NA,NA,NA,"2014","mdr1:86:N"
"geoff_S0034Uwimana","geoff_S0034Uwimana","peer_reviewed","Uwimana",2020,"https://www.nature.com/articles/s41591-020-1005-2","geoff_S0034Uwimana_Masaka_2014","Rwanda","masaka",-1.996943762,30.19178966,"Literature review sourced lat/lon","2014-01-01","2014-12-31","2014-07-02","Automated midpoint",0,0,NA,NA,NA,"2014","mdr1:86:N"
"geoff_S0034Uwimana","geoff_S0034Uwimana","peer_reviewed","Uwimana",2020,"https://www.nature.com/articles/s41591-020-1005-2","geoff_S0034Uwimana_Masaka_2015","Rwanda","masaka",-1.996943762,30.19178966,"Literature review sourced lat/lon","2015-01-01","2015-12-31","2015-07-02","Automated midpoint",0,0,NA,NA,NA,"2015","mdr1:86:N"
"geoff_S0034Uwimana","geoff_S0034Uwimana","peer_reviewed","Uwimana",2020,"https://www.nature.com/articles/s41591-020-1005-2","geoff_S0034Uwimana_Ruhuha_2014","Rwanda","ruhuha",-2.312510936,30.05893237,"Literature review sourced lat/lon","2014-01-01","2014-12-31","2014-07-02","Automated midpoint",0,0,NA,NA,NA,"2014","mdr1:86:N"
"geoff_S0034Uwimana","geoff_S0034Uwimana","peer_reviewed","Uwimana",2020,"https://www.nature.com/articles/s41591-020-1005-2","geoff_S0034Uwimana_Ruhuha_2015","Rwanda","ruhuha",-2.312510936,30.05893237,"Literature review sourced lat/lon","2015-01-01","2015-12-31","2015-07-02","Automated midpoint",0,0,NA,NA,NA,"2015","mdr1:86:N"
"geoff_S0034Uwimana","geoff_S0034Uwimana","peer_reviewed","Uwimana",2020,"https://www.nature.com/articles/s41591-020-1005-2","geoff_S0034Uwimana_Bugarama_2012","Rwanda","bugarama",-2.698764193,29.00817479,"Literature review sourced lat/lon","2012-01-01","2015-12-31","2013-12-31","Automated midpoint",0,0,NA,NA,NA,"2013","mdr1:86:N"
"geoff_S0034Uwimana","geoff_S0034Uwimana","peer_reviewed","Uwimana",2020,"https://www.nature.com/articles/s41591-020-1005-2","geoff_S0034Uwimana_Kibirizi_2012","Rwanda","kibirizi",-2.38679768,29.88967274,"Literature review sourced lat/lon","2012-01-01","2015-12-31","2013-12-31","Automated midpoint",0,0,NA,NA,NA,"2013","mdr1:86:N"
"geoff_S0034Uwimana","geoff_S0034Uwimana","peer_reviewed","Uwimana",2020,"https://www.nature.com/articles/s41591-020-1005-2","geoff_S0034Uwimana_Nyarurema_2012","Rwanda","nyarurema",-1.403341568,30.16622538,"Literature review sourced lat/lon","2012-01-01","2015-12-31","2013-12-31","Automated midpoint",0,0,NA,NA,NA,"2013","mdr1:86:N"
"geoff_S0034Uwimana","geoff_S0034Uwimana","peer_reviewed","Uwimana",2020,"https://www.nature.com/articles/s41591-020-1005-2","geoff_S0034Uwimana_Rukara_2012","Rwanda","rukara",-1.797,30.503,"Literature review sourced lat/lon","2012-01-01","2015-12-31","2013-12-31","Automated midpoint",0,0,NA,NA,NA,"2013","mdr1:86:N"
"geoff_S0017MoserMolEcol","geoff_S0017MoserMolEcol","peer_reviewed","Moser",2021,"https://pubmed.ncbi.nlm.nih.gov/33107096/","geoff_S0017MoserMolEcol_Ilemela_2017","Tanzania","ilemela",-2.4485,32.9663,"Literature review sourced lat/lon","2017-01-01","2017-12-31","2017-07-02","Automated midpoint",0,77,0,0,4.67780681604041,"2017","mdr1:86:N"
"geoff_S0017MoserMolEcol","geoff_S0017MoserMolEcol","peer_reviewed","Moser",2021,"https://pubmed.ncbi.nlm.nih.gov/33107096/","geoff_S0017MoserMolEcol_Chato_2017","Tanzania","chato",-2.6382,31.7668,"Literature review sourced lat/lon","2017-07-01","2017-11-30","2017-09-15","Automated midpoint",0,71,0,0,5.06294079544037,"2017","mdr1:86:N"
"geoff_S0017MoserMolEcol","geoff_S0017MoserMolEcol","peer_reviewed","Moser",2021,"https://pubmed.ncbi.nlm.nih.gov/33107096/","geoff_S0017MoserMolEcol_Buhigwe_2017","Tanzania","buhigwe",-4.4966,29.9278,"Literature review sourced lat/lon","2017-07-01","2017-11-30","2017-09-15","Automated midpoint",0,61,0,0,5.86812239322926,"2017","mdr1:86:N"
